STATION_NAME,STN_ID,LAT,LON,ENSEMBLE,RCP,MODEL,CLIMATOLOGY,Annual,DJF,MAM,JJA,SON,NDJFMA,MJJASO,January,February,March,April,May,June,July,August,September,October,November,December
ADELAIDE-KENT-TOWN,23090,-34.92,138.62,r1i1p1,rcp26,CESM1-CAM5,2040-2059,23.37,29.65,23.96,17.09,22.78,27.7,19.04,30.59,30.84,27.42,23.89,20.58,17.32,16.65,17.3,19.98,22.39,25.97,27.53
ALBANY-AIRPORT-COMPARISON,9741,-34.94,117.8,r1i1p1,rcp26,CESM1-CAM5,2040-2059,20.92,24.72,22.51,16.95,19.46,23.82,17.99,24.99,25.79,24.38,23.02,20.14,17.67,16.59,16.59,18.03,18.92,21.41,23.54
ALICE-SPRINGS-AIRPORT,15590,-23.8,133.89,r1i1p1,rcp26,CESM1-CAM5,2040-2059,30.1,37.36,28.96,21.92,32.14,35.14,25.05,38.41,37.2,34.45,29.02,23.42,20.49,21.16,24.1,29.27,31.87,35.28,36.49
AMBERLEY-AMO,40004,-27.63,152.71,r1i1p1,rcp26,CESM1-CAM5,2040-2059,28.44,32.32,28.68,23.5,29.27,31.34,25.54,32.85,31.88,31.34,28.98,25.72,23.26,22.95,24.29,27.44,29.56,30.81,32.18
BARCALDINE-POST-OFFICE,36007,-23.55,145.29,r1i1p1,rcp26,CESM1-CAM5,2040-2059,31.92,36.82,31.9,25.44,33.53,35.69,28.16,37.53,36.36,35.99,31.88,27.84,24.66,24.78,26.88,31.22,33.61,35.77,36.5
BATHURST-AGRICULTURAL-STATION,63005,-33.43,149.56,r1i1p1,rcp26,CESM1-CAM5,2040-2059,21.44,28.92,21.99,13.83,20.99,26.58,16.28,29.85,29.05,26.08,22.02,17.88,13.81,13.36,14.31,17.68,20.65,24.64,27.93
BIRDSVILLE-AIRPORT,38026,-25.9,139.35,r1i1p1,rcp26,CESM1-CAM5,2040-2059,32.44,40.38,31.95,23.84,33.61,37.97,26.92,41.42,40.2,37.69,31.63,26.52,22.95,22.9,25.69,30.52,32.95,37.38,39.5
BOULIA-AIRPORT,38003,-22.91,139.9,r1i1p1,rcp26,CESM1-CAM5,2040-2059,33.78,40.06,33.36,26.16,35.54,38.42,29.14,40.62,40.29,38.55,33.22,28.3,25.04,25.52,27.92,32.7,35.37,38.56,39.32
BOURKE-AIRPORT-AWS,48245,-30.04,145.95,r1i1p1,rcp26,CESM1-CAM5,2040-2059,29.2,37.11,29.08,20.76,29.87,34.76,23.65,38.0,36.7,34.05,29.11,24.06,20.45,19.92,21.9,26.22,29.36,34.02,36.63
BRIDGETOWN-COMPARISON,9510,-33.96,116.14,r1i1p1,rcp26,CESM1-CAM5,2040-2059,23.65,30.18,24.75,17.57,21.98,28.18,19.05,30.75,31.3,28.07,25.1,21.08,18.3,17.1,17.31,19.17,21.36,25.41,28.79
BRISBANE-AERO,40842,-27.39,153.12,r1i1p1,rcp26,CESM1-CAM5,2040-2059,26.49,29.93,27.17,22.34,26.54,29.07,23.91,30.36,29.97,29.36,27.37,24.77,22.4,21.9,22.72,24.95,26.7,27.95,29.43
BROOME-AIRPORT,3003,-17.95,122.23,r1i1p1,rcp26,CESM1-CAM5,2040-2059,33.03,34.12,34.19,30.44,33.34,34.45,31.59,34.18,33.94,34.55,35.42,32.58,30.48,30.15,30.68,32.3,33.34,34.37,34.3
BUNDABERG-AERO,39128,-24.91,152.32,r1i1p1,rcp26,CESM1-CAM5,2040-2059,27.8,30.95,28.44,23.87,27.93,30.22,25.36,31.35,30.96,30.45,28.76,26.1,23.77,23.37,24.47,26.38,28.1,29.31,30.55
BURKETOWN-AIRPORT,29077,-17.75,139.54,r1i1p1,rcp26,CESM1-CAM5,2040-2059,34.25,35.63,34.62,30.62,36.16,35.92,32.6,35.35,34.84,35.79,35.25,32.82,29.99,30.11,31.76,34.57,36.33,37.59,36.63
BUTLERS-GORGE,96003,-42.28,146.28,r1i1p1,rcp26,CESM1-CAM5,2040-2059,14.18,19.05,14.76,9.4,13.45,17.7,10.64,19.91,20.24,18.02,14.48,11.78,9.89,8.66,9.64,10.62,13.25,16.48,17.2
CABRAMURRA-SMHEA-AWS,72161,-35.94,148.38,r1i1p1,rcp26,CESM1-CAM5,2040-2059,12.89,20.37,14.06,5.22,11.84,18.1,7.64,21.01,21.49,18.22,13.81,10.15,5.83,4.79,5.02,8.44,11.61,15.47,18.77
CAIRNS-AERO,31011,-16.87,145.75,r1i1p1,rcp26,CESM1-CAM5,2040-2059,30.26,32.5,30.41,27.3,30.84,31.98,28.55,32.66,32.28,31.66,30.65,28.92,27.17,26.85,27.87,29.34,31.13,32.04,32.5
CAMOOWEAL-TOWNSHIP,37010,-19.92,138.12,r1i1p1,rcp26,CESM1-CAM5,2040-2059,34.63,38.74,34.51,28.67,37.14,38.09,31.41,39.08,38.28,37.75,35.11,30.68,27.49,27.98,30.55,35.06,37.08,39.44,38.81
CANBERRA-AIRPORT,70351,-35.31,149.2,r1i1p1,rcp26,CESM1-CAM5,2040-2059,21.63,29.03,22.19,14.08,21.2,26.74,16.51,30.17,29.43,25.43,23.19,17.96,14.06,13.95,14.24,17.92,20.93,24.74,27.6
CAPE-BORDA,22823,-35.75,136.6,r1i1p1,rcp26,CESM1-CAM5,2040-2059,19.41,23.66,20.11,15.48,18.37,22.34,16.46,24.38,24.72,22.53,19.98,17.84,15.97,15.31,15.15,16.47,18.01,20.65,21.95
CAPE-BRUNY-LIGHTHOUSE,94010,-43.49,147.15,r1i1p1,rcp26,CESM1-CAM5,2040-2059,16.25,19.22,17.13,13.02,15.59,18.47,14.02,19.71,20.17,19.15,17.19,15.06,13.09,12.77,13.19,14.72,15.3,16.75,17.87
CAPE-LEEUWIN,9518,-34.37,115.14,r1i1p1,rcp26,CESM1-CAM5,2040-2059,20.67,23.47,22.17,17.8,19.21,22.85,18.47,23.53,24.36,23.28,22.55,20.67,18.68,17.53,17.19,17.93,18.84,20.85,22.6
CAPE-MORETON-LIGHTHOUSE,40043,-27.03,153.47,r1i1p1,rcp26,CESM1-CAM5,2040-2059,25.03,28.48,25.85,21.14,24.86,27.6,22.54,28.82,28.7,27.99,26.06,23.64,21.22,20.83,21.35,23.21,24.96,26.41,27.9
CAPE-OTWAY-LIGHTHOUSE,90015,-38.86,143.51,r1i1p1,rcp26,CESM1-CAM5,2040-2059,17.64,20.84,18.51,14.24,16.98,19.96,15.31,21.4,21.9,20.52,18.54,16.67,14.49,13.9,14.36,15.57,16.86,18.44,19.28
CARNARVON-AIRPORT,6011,-24.89,113.67,r1i1p1,rcp26,CESM1-CAM5,2040-2059,28.35,31.77,30.47,24.28,26.88,31.26,25.45,31.64,33.56,32.41,31.02,27.98,25.01,23.91,23.92,25.05,26.83,28.76,30.13
CEDUNA-AMO,18012,-32.13,133.7,r1i1p1,rcp26,CESM1-CAM5,2040-2059,25.07,29.51,25.5,19.79,25.48,28.37,21.76,30.14,29.99,28.14,25.83,22.53,19.66,19.4,20.32,23.44,25.22,27.78,28.41
CHARLEVILLE-AERO,44021,-26.41,146.26,r1i1p1,rcp26,CESM1-CAM5,2040-2059,30.14,36.24,30.53,22.47,31.37,34.64,25.67,37.19,35.48,35.75,28.96,26.87,21.11,21.52,24.77,28.26,31.48,34.37,35.96
CHARTERS-TOWERS-AIRPORT,34084,-20.05,146.27,r1i1p1,rcp26,CESM1-CAM5,2040-2059,31.23,34.62,30.79,26.35,33.19,33.78,28.69,34.9,33.85,32.96,31.09,28.33,25.81,25.71,27.53,30.97,33.79,34.81,35.06
COBAR-MO,48027,-31.48,145.83,r1i1p1,rcp26,CESM1-CAM5,2040-2059,26.91,35.1,26.82,18.52,27.22,32.5,21.33,36.07,34.87,31.44,26.9,22.12,18.28,17.83,19.44,23.58,26.72,31.36,34.35
COFFS-HARBOUR-MO,59040,-30.31,153.12,r1i1p1,rcp26,CESM1-CAM5,2040-2059,24.73,28.07,25.2,20.74,24.9,27.18,22.28,28.39,28.29,27.44,25.34,22.84,20.8,20.23,21.18,23.54,25.08,26.09,27.56
CUNDERDIN-AIRFIELD,10286,-31.62,117.22,r1i1p1,rcp26,CESM1-CAM5,2040-2059,26.68,35.18,27.25,18.21,26.01,32.55,20.77,36.35,35.17,31.22,27.75,22.79,19.28,17.63,17.72,21.11,26.1,30.82,34.22
DALWALLINU-COMPARISON,8039,-30.28,116.66,r1i1p1,rcp26,CESM1-CAM5,2040-2059,27.49,36.0,28.2,19.01,26.67,33.38,21.55,37.25,36.28,32.54,28.7,23.37,19.85,18.39,18.8,22.07,26.83,31.1,34.67
DARWIN-AIRPORT,14015,-12.42,130.89,r1i1p1,rcp26,CESM1-CAM5,2040-2059,33.1,32.83,33.37,31.99,34.2,33.35,32.83,32.75,32.31,33.04,34.0,33.06,31.6,31.71,32.67,33.68,34.27,34.67,33.48
DENILIQUIN-AIRPORT-AWS,74258,-35.56,144.95,r1i1p1,rcp26,CESM1-CAM5,2040-2059,24.28,32.6,24.43,16.08,23.99,29.92,18.64,33.45,33.1,28.96,24.49,19.86,15.84,15.49,16.92,20.08,23.64,28.26,31.26
DUBBO-AIRPORT-AWS,65070,-32.22,148.58,r1i1p1,rcp26,CESM1-CAM5,2040-2059,25.54,33.34,25.92,17.41,25.49,30.98,20.1,34.04,33.35,30.26,25.96,21.53,17.51,16.77,17.95,21.69,25.16,29.63,32.63
EAST-SALE-AIRPORT,85072,-38.12,147.13,r1i1p1,rcp26,CESM1-CAM5,2040-2059,20.92,25.95,21.71,15.78,20.24,24.46,17.37,26.74,26.89,24.91,21.62,18.6,15.71,15.34,16.29,18.15,20.15,22.42,24.28
ESPERANCE,9789,-33.83,121.89,r1i1p1,rcp26,CESM1-CAM5,2040-2059,22.58,26.68,23.79,18.18,21.61,25.6,19.52,27.61,27.55,25.75,24.1,21.53,18.9,17.65,17.99,19.89,21.18,23.75,25.04
EUCLA,11003,-31.68,128.88,r1i1p1,rcp26,CESM1-CAM5,2040-2059,23.87,26.66,24.4,19.92,24.52,26.08,21.67,27.41,26.82,26.12,24.66,22.43,20.03,19.37,20.37,23.22,24.61,25.73,25.7
FORREST,11052,-30.85,128.11,r1i1p1,rcp26,CESM1-CAM5,2040-2059,26.91,32.98,26.75,20.26,27.64,31.03,22.79,34.78,32.82,29.88,26.86,23.52,20.0,19.67,21.11,25.36,27.06,30.51,31.36
GABO-ISLAND-LIGHTHOUSE,84016,-37.57,149.92,r1i1p1,rcp26,CESM1-CAM5,2040-2059,19.46,22.43,20.63,16.19,18.56,21.68,17.22,23.02,23.22,22.38,20.72,18.79,16.59,15.9,16.08,17.42,18.55,19.72,21.11
GAYNDAH-AIRPORT,39066,-25.62,151.62,r1i1p1,rcp26,CESM1-CAM5,2040-2059,29.74,34.02,30.05,24.35,30.58,32.91,26.58,34.55,33.63,32.92,30.29,26.92,23.99,23.67,25.38,28.51,30.99,32.23,33.83
GEORGETOWN-AIRPORT,30124,-18.3,143.53,r1i1p1,rcp26,CESM1-CAM5,2040-2059,33.84,35.37,33.43,30.08,36.5,35.4,32.28,35.15,34.37,34.78,33.91,31.6,29.24,29.66,31.35,34.79,37.07,37.65,36.5
GERALDTON-AIRPORT-COMPARISON,8051,-28.8,114.7,r1i1p1,rcp26,CESM1-CAM5,2040-2059,26.91,32.01,28.99,21.21,25.36,30.92,22.86,32.12,33.67,31.7,29.69,25.59,22.44,20.7,20.5,22.51,25.41,28.14,30.45
GILES-METEOROLOGICAL-OFFICE,13017,-25.03,128.3,r1i1p1,rcp26,CESM1-CAM5,2040-2059,30.83,37.89,30.33,22.26,32.84,35.97,25.7,38.89,37.62,35.64,30.45,24.89,21.28,21.27,24.23,29.64,32.87,36.01,37.16
GROVE-RESEARCH-STATION,94220,-42.99,147.07,r1i1p1,rcp26,CESM1-CAM5,2040-2059,18.57,22.96,19.22,13.98,18.07,21.72,15.41,23.7,24.03,22.3,19.12,16.25,13.8,13.55,14.6,16.4,17.84,19.96,21.35
GUNNEDAH-RESOURCE-CENTRE,55024,-31.03,150.27,r1i1p1,rcp26,CESM1-CAM5,2040-2059,26.09,32.83,26.55,18.65,26.34,30.9,21.27,33.54,32.78,30.85,26.53,22.27,18.51,17.95,19.47,23.18,26.24,29.6,32.16
HALLS-CREEK-AIRPORT,2012,-18.23,127.66,r1i1p1,rcp26,CESM1-CAM5,2040-2059,35.32,38.23,34.73,29.77,38.52,38.07,32.57,38.39,37.38,37.51,35.63,31.06,28.59,28.97,31.73,36.43,38.65,40.47,39.02
HOBART-ELLERSLIE-ROAD,94029,-42.89,147.33,r1i1p1,rcp26,CESM1-CAM5,2040-2059,18.87,22.92,19.6,14.35,18.56,21.82,15.9,23.52,23.79,22.29,19.66,16.84,14.05,13.9,15.08,17.08,18.44,20.16,21.57
HORN-ISLAND,27058,-10.58,142.29,r1i1p1,rcp26,CESM1-CAM5,2040-2059,31.19,31.94,31.22,29.7,31.95,31.98,30.44,31.97,31.42,31.52,31.47,30.71,29.88,29.41,29.82,30.78,32.12,32.94,32.48
INVERELL-RAGLAN-ST,56242,-29.78,151.11,r1i1p1,rcp26,CESM1-CAM5,2040-2059,25.08,30.85,25.87,18.55,25.05,29.29,20.87,31.51,30.81,29.72,25.81,22.08,18.43,17.85,19.37,22.47,25.04,27.65,30.18
JERVIS-BAY-POINT-PERPENDICULAR-AWS,68151,-35.09,150.8,r1i1p1,rcp26,CESM1-CAM5,2040-2059,21.44,24.99,22.31,17.5,21.06,24.01,18.88,25.4,25.45,24.4,22.44,20.07,17.75,17.03,17.72,19.57,21.15,22.46,24.09
KALGOORLIE-BOULDER-AIRPORT,12038,-30.78,121.45,r1i1p1,rcp26,CESM1-CAM5,2040-2059,26.75,34.42,26.32,19.02,27.2,31.79,21.69,36.21,33.6,30.02,26.68,22.26,19.08,18.36,19.63,23.81,27.02,30.79,33.49
KALUMBURU,1019,-14.3,126.65,r1i1p1,rcp26,CESM1-CAM5,2040-2059,35.31,35.19,35.17,33.29,37.49,35.77,34.84,35.38,34.18,35.07,35.86,34.56,32.74,33.02,34.18,36.59,37.81,38.08,36.06
KATANNING-COMPARISON,10579,-33.69,117.56,r1i1p1,rcp26,CESM1-CAM5,2040-2059,23.52,30.98,24.29,16.46,22.29,28.63,18.37,31.77,31.46,27.73,24.62,20.5,17.26,15.96,16.15,18.51,21.82,26.55,29.92
KERANG,80023,-35.72,143.92,r1i1p1,rcp26,CESM1-CAM5,2040-2059,24.27,32.29,24.44,16.41,23.91,29.68,18.85,33.22,32.91,28.9,24.49,19.92,16.11,15.78,17.34,20.25,23.68,27.82,30.78
KYANCUTTA,18044,-33.13,135.56,r1i1p1,rcp26,CESM1-CAM5,2040-2059,26.55,33.43,26.92,19.35,26.51,31.35,21.75,34.39,34.25,30.82,27.05,22.88,19.3,19.01,19.73,23.32,26.26,29.96,31.64
LARAPUNA-EDDYSTONE-POINT,92045,-40.99,148.35,r1i1p1,rcp26,CESM1-CAM5,2040-2059,18.73,22.03,19.95,15.19,17.8,21.23,16.21,22.42,22.78,22.19,19.73,17.69,15.4,14.94,15.23,16.43,17.67,19.31,20.99
LAUNCESTON-AIRPORT,91311,-41.55,147.21,r1i1p1,rcp26,CESM1-CAM5,2040-2059,18.94,24.36,19.78,13.33,18.23,22.9,14.96,25.03,25.51,23.87,19.45,16.02,13.25,12.88,13.85,15.68,18.05,20.98,22.75
LAVERTON-RAAF,87031,-37.86,144.76,r1i1p1,rcp26,CESM1-CAM5,2040-2059,21.13,26.35,21.75,15.9,20.49,24.78,17.48,27.12,27.45,25.02,21.66,18.58,15.86,15.52,16.32,18.18,20.41,22.88,24.54
LEARMONTH-AIRPORT,5007,-22.24,114.1,r1i1p1,rcp26,CESM1-CAM5,2040-2059,32.72,38.18,33.8,26.13,32.73,36.92,28.51,38.94,38.28,37.18,34.42,29.79,26.2,25.52,26.68,29.66,33.22,35.32,37.47
LONGREACH-AERO,36031,-23.44,144.28,r1i1p1,rcp26,CESM1-CAM5,2040-2059,33.34,38.6,33.6,26.13,35.06,37.36,29.34,39.27,38.62,38.22,32.79,29.8,24.26,26.01,28.11,31.97,35.92,37.3,37.82
LOW-HEAD,91293,-41.06,146.79,r1i1p1,rcp26,CESM1-CAM5,2040-2059,17.47,20.81,18.84,13.95,16.25,20.05,14.88,21.24,22.05,21.19,18.78,16.55,14.42,13.61,13.82,14.71,16.15,17.9,19.27
MACKAY-M.O,33119,-21.12,149.22,r1i1p1,rcp26,CESM1-CAM5,2040-2059,27.45,30.85,27.65,22.82,28.48,30.07,24.82,31.09,30.48,29.77,27.92,25.25,22.78,22.21,23.46,26.4,28.8,30.25,30.97
MARBLE-BAR,4106,-21.18,119.75,r1i1p1,rcp26,CESM1-CAM5,2040-2059,36.27,41.54,35.74,29.05,38.78,40.32,32.16,42.02,40.39,38.52,36.95,31.74,28.63,28.17,30.35,35.1,39.17,41.79,42.37
MARREE,17031,-29.65,138.06,r1i1p1,rcp26,CESM1-CAM5,2040-2059,30.47,38.81,30.27,21.79,31.02,36.24,24.69,39.77,39.15,35.65,30.37,24.79,21.24,21.1,23.04,27.76,30.25,35.05,37.45
MEEKATHARRA-AIRPORT,7045,-26.61,118.54,r1i1p1,rcp26,CESM1-CAM5,2040-2059,30.59,39.23,30.69,21.53,30.88,36.4,24.77,40.62,39.48,35.05,30.7,26.31,21.08,20.7,22.82,26.56,31.14,34.93,37.75
MELBOURNE-REGIONAL-OFFICE,86071,-37.81,144.97,r1i1p1,rcp26,CESM1-CAM5,2040-2059,21.67,27.15,22.26,16.17,21.1,25.48,17.86,27.84,28.34,25.73,22.1,18.94,16.02,15.73,16.75,18.68,21.04,23.57,25.31
MERREDIN,10092,-31.48,118.28,r1i1p1,rcp26,CESM1-CAM5,2040-2059,26.69,35.18,27.11,18.26,26.16,32.45,20.9,36.51,34.99,31.16,27.38,22.79,19.12,17.65,18.01,21.6,26.2,30.67,34.21
MILDURA-AIRPORT,76031,-34.24,142.09,r1i1p1,rcp26,CESM1-CAM5,2040-2059,25.23,33.0,25.12,17.54,25.24,30.44,20.01,33.8,33.56,29.43,25.21,20.73,17.23,16.91,18.49,21.77,24.94,29.02,31.63
MILES-CONSTANCE-STREET,42112,-26.66,150.18,r1i1p1,rcp26,CESM1-CAM5,2040-2059,28.62,33.97,29.01,22.01,29.5,32.61,24.62,34.77,33.35,32.94,29.13,24.96,21.57,21.18,23.27,26.93,29.8,31.76,33.76
MORAWA-AIRPORT,8296,-29.2,116.02,r1i1p1,rcp26,CESM1-CAM5,2040-2059,28.71,37.15,29.39,20.46,28.09,34.6,23.05,38.26,37.73,33.86,30.39,24.83,21.21,19.91,20.28,23.67,28.41,32.17,35.87
MOREE-AERO,53115,-29.49,149.85,r1i1p1,rcp26,CESM1-CAM5,2040-2059,27.73,34.17,28.28,20.24,28.26,32.47,23.0,34.72,33.96,32.51,28.26,24.06,20.11,19.47,21.14,24.94,28.3,31.53,33.7
MORUYA-HEADS-PILOT-STATION,69018,-35.91,150.15,r1i1p1,rcp26,CESM1-CAM5,2040-2059,21.59,24.47,22.5,18.19,21.18,23.74,19.41,24.9,25.04,24.38,22.55,20.59,18.41,17.78,18.37,20.02,21.32,22.21,23.48
MOUNT-GAMBIER-AERO,26021,-37.75,140.77,r1i1p1,rcp26,CESM1-CAM5,2040-2059,20.26,25.62,21.09,15.06,19.2,24.0,16.49,26.25,27.1,24.44,20.96,17.88,15.1,14.75,15.34,17.03,18.84,21.74,23.66
NHILL-AERODROME,78015,-36.31,141.65,r1i1p1,rcp26,CESM1-CAM5,2040-2059,23.54,31.33,23.94,16.05,22.83,28.83,18.25,32.05,32.51,28.35,23.81,19.66,15.81,15.66,16.69,19.12,22.56,26.81,29.48
NORMANTON-AIRPORT,29063,-17.69,141.07,r1i1p1,rcp26,CESM1-CAM5,2040-2059,34.57,35.7,34.83,31.1,36.65,36.05,33.1,35.49,35.05,35.83,35.6,33.07,30.42,30.62,32.28,35.35,36.85,37.77,36.52
NORTH-SHIELDS-PORT-LINCOLN-AWS,18192,-34.6,135.88,r1i1p1,rcp26,CESM1-CAM5,2040-2059,21.84,25.82,22.68,17.47,21.37,24.73,18.92,26.51,26.66,24.53,22.88,20.62,17.84,17.25,17.31,19.26,21.25,23.6,24.31
NOWRA-RAN-AIR-STATION-AWS,68072,-34.95,150.54,r1i1p1,rcp26,CESM1-CAM5,2040-2059,23.18,27.3,23.82,18.51,23.09,26.13,20.22,27.85,27.57,26.29,24.01,21.16,18.56,18.0,18.99,21.45,23.19,24.63,26.47
NURIOOTPA-VITICULTURAL,23373,-34.48,139.01,r1i1p1,rcp26,CESM1-CAM5,2040-2059,22.21,29.29,22.78,15.13,21.65,27.1,17.32,30.28,30.3,26.65,22.77,18.91,15.24,14.73,15.41,18.36,21.25,25.34,27.29
OODNADATTA-AIRPORT,17043,-27.56,135.45,r1i1p1,rcp26,CESM1-CAM5,2040-2059,31.81,39.11,30.28,22.22,31.92,36.46,25.3,40.18,39.2,35.75,29.96,25.14,21.35,21.29,24.03,28.87,31.02,35.86,38.31
ORBOST,84145,-37.69,148.47,r1i1p1,rcp26,CESM1-CAM5,2040-2059,20.97,25.59,21.72,16.26,20.34,24.28,17.68,26.48,26.62,24.66,21.58,18.91,16.17,15.85,16.75,18.37,20.02,22.63,23.93
PALMERVILLE,28004,-16.0,144.08,r1i1p1,rcp26,CESM1-CAM5,2040-2059,33.89,34.68,32.82,31.39,36.54,34.63,33.13,34.23,33.59,33.06,33.28,32.12,30.81,30.69,32.49,34.9,37.28,37.66,36.22
PERTH-AIRPORT,9021,-31.93,115.98,r1i1p1,rcp26,CESM1-CAM5,2040-2059,26.07,32.46,27.22,19.84,24.65,30.64,21.44,33.71,33.4,30.94,27.34,23.38,20.37,19.42,19.73,21.38,24.38,28.18,30.58
PORT-HEDLAND-AIRPORT,4032,-20.37,118.63,r1i1p1,rcp26,CESM1-CAM5,2040-2059,34.31,37.29,35.6,28.97,35.3,37.31,31.27,37.23,37.62,37.55,36.93,32.33,28.65,28.59,29.67,32.26,36.11,37.54,37.26
PORT-MACQUARIE-AIRPORT-AWS,60139,-31.43,152.87,r1i1p1,rcp26,CESM1-CAM5,2040-2059,24.73,28.39,25.21,20.57,24.81,27.33,22.16,28.8,28.84,27.67,25.18,22.76,20.68,19.94,21.09,23.65,24.8,25.98,27.6
RABBIT-FLAT,15666,-20.18,130.01,r1i1p1,rcp26,CESM1-CAM5,2040-2059,35.04,39.59,34.04,28.31,38.19,38.71,31.36,39.92,38.96,37.65,34.99,29.47,27.17,27.27,30.49,35.64,38.08,40.85,39.97
RICHMOND-POST-OFFICE,30045,-20.73,143.14,r1i1p1,rcp26,CESM1-CAM5,2040-2059,33.95,37.57,33.7,28.3,36.26,36.93,30.98,37.68,36.97,36.44,34.2,30.45,27.3,27.73,29.88,34.21,36.33,38.22,38.01
RICHMOND-RAAF,67105,-33.6,150.78,r1i1p1,rcp26,CESM1-CAM5,2040-2059,24.91,29.91,24.88,19.51,25.38,28.3,21.53,30.71,29.89,27.86,24.97,21.8,19.28,18.94,20.3,23.31,25.57,27.26,29.06
ROBE-COMPARISON,26026,-37.16,139.76,r1i1p1,rcp26,CESM1-CAM5,2040-2059,19.37,22.91,20.14,15.55,18.85,21.96,16.77,23.46,23.81,22.19,20.12,18.11,15.75,15.23,15.66,17.19,18.7,20.66,21.54
ROCKHAMPTON-AERO,39083,-23.38,150.48,r1i1p1,rcp26,CESM1-CAM5,2040-2059,29.62,32.89,29.86,25.05,30.68,32.15,27.07,33.23,32.56,32.15,30.08,27.35,24.74,24.46,25.94,28.87,31.06,32.1,32.89
RUTHERGLEN-RESEARCH,82039,-36.1,146.51,r1i1p1,rcp26,CESM1-CAM5,2040-2059,22.97,31.78,23.65,14.52,21.89,29.02,16.91,32.6,32.49,28.66,23.65,18.63,14.47,13.92,15.18,17.93,21.29,26.44,30.32
SCONE-AIRPORT-AWS,61363,-32.03,150.83,r1i1p1,rcp26,CESM1-CAM5,2040-2059,25.35,31.58,25.57,18.41,25.81,29.76,20.92,32.28,31.42,29.25,25.78,21.69,18.38,17.73,19.14,22.82,25.75,28.87,31.07
SNOWTOWN-RAYVILLE-PARK,21133,-33.77,138.22,r1i1p1,rcp26,CESM1-CAM5,2040-2059,24.8,32.47,25.26,17.05,24.41,30.04,19.54,33.59,33.37,29.06,25.4,21.33,17.29,16.67,17.18,20.51,24.25,28.47,30.46
ST-GEORGE-AIRPORT,43109,-28.05,148.59,r1i1p1,rcp26,CESM1-CAM5,2040-2059,28.94,35.26,29.21,21.48,29.85,33.56,24.35,35.93,34.62,33.64,29.19,24.81,21.05,20.76,22.64,27.01,29.81,32.74,35.13
SYDNEY-OBSERVATORY-HILL,66062,-33.86,151.21,r1i1p1,rcp26,CESM1-CAM5,2040-2059,23.68,27.32,24.35,19.34,23.68,26.34,21.0,27.74,27.74,26.68,24.51,21.87,19.41,18.77,19.84,22.24,23.85,24.95,26.5
TARCOOLA-AERO,16098,-30.71,134.58,r1i1p1,rcp26,CESM1-CAM5,2040-2059,28.5,36.29,28.21,20.56,28.97,33.73,23.28,37.68,37.0,32.8,28.14,23.68,19.96,20.27,21.46,25.82,28.49,32.6,34.5
TENNANT-CREEK-AIRPORT,15135,-19.64,134.18,r1i1p1,rcp26,CESM1-CAM5,2040-2059,33.3,37.75,32.69,26.97,35.81,36.82,29.79,38.21,37.37,36.27,33.21,28.58,25.75,26.09,29.08,33.64,35.61,38.17,37.66
THARGOMINDAH-AIRPORT,45025,-27.99,143.81,r1i1p1,rcp26,CESM1-CAM5,2040-2059,30.65,38.59,30.39,22.13,31.47,36.2,25.11,39.8,37.97,35.69,30.2,25.28,21.4,21.3,23.67,27.98,31.0,35.44,38.01
TIBOOBURRA-POST-OFFICE,46037,-29.43,142.01,r1i1p1,rcp26,CESM1-CAM5,2040-2059,29.1,37.44,28.66,20.64,29.66,34.73,23.47,38.54,37.3,33.92,28.59,23.47,19.99,19.84,22.11,26.33,29.08,33.57,36.49
TOWNSVILLE-AERO,32040,-19.25,146.77,r1i1p1,rcp26,CESM1-CAM5,2040-2059,30.39,32.7,30.92,27.03,30.94,32.3,28.49,32.84,32.44,32.39,31.31,29.07,27.01,26.56,27.53,29.47,31.3,32.05,32.72
VICTORIA-RIVER-DOWNS,14825,-16.4,131.01,r1i1p1,rcp26,CESM1-CAM5,2040-2059,35.86,37.56,35.41,31.55,38.88,37.65,34.07,37.6,36.6,36.97,36.16,33.09,30.33,30.77,33.49,37.77,38.78,40.1,38.44
WAGGA-WAGGA-AMO,72150,-35.16,147.46,r1i1p1,rcp26,CESM1-CAM5,2040-2059,23.59,32.41,24.09,14.97,22.89,29.64,17.54,33.31,32.89,28.77,24.24,19.27,14.8,14.46,15.64,18.66,22.43,27.57,31.09
WALGETT-AIRPORT-AWS,52088,-30.04,148.12,r1i1p1,rcp26,CESM1-CAM5,2040-2059,28.74,36.08,28.89,20.65,29.36,33.92,23.56,36.81,35.73,33.46,28.83,24.39,20.29,19.95,21.72,25.89,29.13,33.06,35.63
WANDERING,10917,-32.67,116.67,r1i1p1,rcp26,CESM1-CAM5,2040-2059,24.46,32.63,25.24,16.85,23.05,30.08,18.79,33.54,32.97,29.14,25.69,20.87,17.68,16.42,16.44,18.84,22.5,27.8,31.63
WEIPA-AERO,27045,-12.68,141.92,r1i1p1,rcp26,CESM1-CAM5,2040-2059,33.58,33.14,33.06,32.22,35.86,33.65,33.47,33.01,32.24,32.83,33.49,32.87,31.89,31.71,33.05,34.92,36.39,36.28,34.24
WILCANNIA-REID-ST,46043,-31.56,143.37,r1i1p1,rcp26,CESM1-CAM5,2040-2059,27.83,35.96,27.53,19.61,28.23,33.29,22.37,36.97,36.12,32.31,27.53,22.75,19.18,18.92,20.74,24.94,27.7,32.03,34.79
WILLIAMTOWN-RAAF,61078,-32.79,151.84,r1i1p1,rcp26,CESM1-CAM5,2040-2059,24.52,29.17,24.83,19.24,24.88,27.79,21.26,29.78,29.24,27.52,25.06,21.9,19.23,18.61,19.87,22.86,25.11,26.66,28.45
WILSONS-PROMONTORY-LIGHTHOUSE,85096,-39.13,146.42,r1i1p1,rcp26,CESM1-CAM5,2040-2059,17.5,20.77,18.55,14.02,16.64,19.9,15.09,21.37,21.85,20.59,18.46,16.61,14.4,13.78,13.89,15.31,16.54,18.07,19.19
WITTENOOM,5026,-22.24,118.34,r1i1p1,rcp26,CESM1-CAM5,2040-2059,34.69,40.95,34.14,26.84,36.78,39.28,30.09,41.51,40.08,37.73,34.88,29.81,26.11,26.13,28.27,32.95,37.29,40.11,41.36
WOOMERA-AERODROME,16001,-31.16,136.81,r1i1p1,rcp26,CESM1-CAM5,2040-2059,27.37,35.33,27.14,19.36,27.65,32.71,22.02,36.32,35.99,31.76,27.05,22.61,18.83,18.94,20.3,24.42,27.02,31.53,33.63
WYALONG-POST-OFFICE,73054,-33.93,147.24,r1i1p1,rcp26,CESM1-CAM5,2040-2059,25.07,33.65,25.43,16.38,24.79,30.93,19.18,34.55,34.05,29.88,25.55,20.86,16.29,15.76,17.1,20.68,24.41,29.28,32.43
YAMBA-PILOT-STATION,58012,-29.43,153.36,r1i1p1,rcp26,CESM1-CAM5,2040-2059,25.17,28.23,25.92,21.49,25.05,27.5,22.85,28.44,28.75,28.0,26.12,23.65,21.54,21.03,21.89,23.75,25.22,26.18,27.49
ADELAIDE-KENT-TOWN,23090,-34.92,138.62,r1i1p1,rcp26,CNRM-CM5,2040-2059,23.34,29.63,23.88,17.08,22.76,27.67,19.01,30.55,30.06,27.81,23.53,20.3,17.42,16.24,17.57,20.04,22.47,25.78,28.3
ALBANY-AIRPORT-COMPARISON,9741,-34.94,117.8,r1i1p1,rcp26,CNRM-CM5,2040-2059,20.96,24.55,22.63,16.8,19.81,23.86,18.03,24.7,25.48,24.74,23.05,20.11,17.38,16.1,16.91,18.26,19.43,21.74,23.65
ALICE-SPRINGS-AIRPORT,15590,-23.8,133.89,r1i1p1,rcp26,CNRM-CM5,2040-2059,30.11,37.11,29.25,22.16,31.91,34.97,25.25,38.69,35.8,34.61,28.74,24.39,21.4,21.04,24.04,29.18,31.44,35.13,36.85
AMBERLEY-AMO,40004,-27.63,152.71,r1i1p1,rcp26,CNRM-CM5,2040-2059,27.9,31.97,27.7,23.01,28.93,30.73,25.06,32.68,31.46,30.0,27.89,25.19,22.86,22.17,24.0,27.28,28.86,30.64,31.72
BARCALDINE-POST-OFFICE,36007,-23.55,145.29,r1i1p1,rcp26,CNRM-CM5,2040-2059,31.36,36.78,31.08,24.84,32.77,35.24,27.5,37.85,35.81,34.73,31.15,27.35,24.87,23.74,25.9,30.18,32.96,35.18,36.61
BATHURST-AGRICULTURAL-STATION,63005,-33.43,149.56,r1i1p1,rcp26,CNRM-CM5,2040-2059,21.11,28.97,21.6,13.25,20.59,26.33,15.88,30.29,28.83,25.89,21.44,17.48,13.26,12.26,14.22,17.38,20.65,23.74,27.86
BIRDSVILLE-AIRPORT,38026,-25.9,139.35,r1i1p1,rcp26,CNRM-CM5,2040-2059,31.88,39.68,31.29,23.43,33.14,37.23,26.54,41.38,38.4,36.87,30.65,26.36,23.17,22.08,25.03,30.04,32.54,36.83,39.23
BOULIA-AIRPORT,38003,-22.91,139.9,r1i1p1,rcp26,CNRM-CM5,2040-2059,33.21,39.66,32.65,25.78,34.73,37.74,28.67,40.77,38.72,37.57,32.29,28.09,25.34,24.7,27.29,31.97,34.64,37.59,39.56
BOURKE-AIRPORT-AWS,48245,-30.04,145.95,r1i1p1,rcp26,CNRM-CM5,2040-2059,28.65,37.03,28.25,20.15,29.16,34.18,23.12,38.19,36.58,33.58,27.81,23.37,20.12,18.62,21.69,25.81,29.12,32.55,36.33
BRIDGETOWN-COMPARISON,9510,-33.96,116.14,r1i1p1,rcp26,CNRM-CM5,2040-2059,23.62,29.9,24.86,17.39,22.23,28.15,19.03,30.42,30.96,28.55,25.05,20.98,18.01,16.5,17.66,19.38,21.64,25.67,28.62
BRISBANE-AERO,40842,-27.39,153.12,r1i1p1,rcp26,CNRM-CM5,2040-2059,25.99,29.58,26.25,21.92,26.21,28.51,23.46,30.14,29.6,28.11,26.41,24.22,22.1,21.18,22.47,24.81,25.99,27.83,28.97
BROOME-AIRPORT,3003,-17.95,122.23,r1i1p1,rcp26,CNRM-CM5,2040-2059,33.02,33.78,34.31,30.73,33.23,34.25,31.77,33.87,33.56,34.93,35.14,32.86,30.6,30.4,31.18,32.51,33.08,34.1,33.99
BUNDABERG-AERO,39128,-24.91,152.32,r1i1p1,rcp26,CNRM-CM5,2040-2059,27.49,30.85,27.85,23.65,27.6,29.88,25.08,31.33,31.0,29.64,28.01,25.91,23.94,22.78,24.23,26.35,27.28,29.17,30.23
BURKETOWN-AIRPORT,29077,-17.75,139.54,r1i1p1,rcp26,CNRM-CM5,2040-2059,34.04,35.58,34.33,30.45,35.83,35.71,32.39,35.4,34.67,35.63,34.78,32.57,30.31,29.75,31.29,34.19,36.2,37.11,36.61
BUTLERS-GORGE,96003,-42.28,146.28,r1i1p1,rcp26,CNRM-CM5,2040-2059,13.86,18.72,14.11,9.27,13.27,17.22,10.47,19.35,19.6,17.42,13.74,11.17,9.68,8.43,9.7,10.47,13.39,15.96,17.38
CABRAMURRA-SMHEA-AWS,72161,-35.94,148.38,r1i1p1,rcp26,CNRM-CM5,2040-2059,12.5,20.21,13.55,4.77,11.44,17.66,7.32,21.09,21.25,18.04,12.93,9.68,5.35,3.99,4.96,8.34,11.61,14.37,18.44
CAIRNS-AERO,31011,-16.87,145.75,r1i1p1,rcp26,CNRM-CM5,2040-2059,29.88,32.16,30.08,27.07,30.24,31.57,28.2,32.17,32.18,31.39,30.12,28.74,27.41,26.67,27.12,28.88,30.39,31.46,32.08
CAMOOWEAL-TOWNSHIP,37010,-19.92,138.12,r1i1p1,rcp26,CNRM-CM5,2040-2059,34.57,39.05,34.48,28.51,36.81,38.1,31.3,39.58,37.95,37.78,34.77,30.9,27.92,27.54,30.07,34.62,37.12,38.87,39.58
CANBERRA-AIRPORT,70351,-35.31,149.2,r1i1p1,rcp26,CNRM-CM5,2040-2059,21.23,28.89,21.65,13.57,20.77,26.32,16.12,30.25,29.19,25.22,22.33,17.41,13.47,13.08,14.15,17.72,20.89,23.69,27.32
CAPE-BORDA,22823,-35.75,136.6,r1i1p1,rcp26,CNRM-CM5,2040-2059,19.42,23.83,20.04,15.31,18.49,22.46,16.36,24.59,24.3,22.75,19.77,17.59,15.85,14.81,15.27,16.49,18.15,20.83,22.66
CAPE-BRUNY-LIGHTHOUSE,94010,-43.49,147.15,r1i1p1,rcp26,CNRM-CM5,2040-2059,15.83,18.83,16.4,12.73,15.35,17.91,13.75,19.3,19.5,18.36,16.26,14.57,12.61,12.42,13.15,14.36,15.41,16.28,17.79
CAPE-LEEUWIN,9518,-34.37,115.14,r1i1p1,rcp26,CNRM-CM5,2040-2059,20.67,23.36,22.25,17.62,19.44,22.91,18.43,23.41,24.12,23.56,22.62,20.56,18.4,17.07,17.38,18.04,19.11,21.15,22.65
CAPE-MORETON-LIGHTHOUSE,40043,-27.03,153.47,r1i1p1,rcp26,CNRM-CM5,2040-2059,24.56,28.12,25.01,20.76,24.52,27.06,22.12,28.53,28.39,26.87,25.2,23.1,21.02,20.16,21.11,23.07,24.24,26.26,27.42
CAPE-OTWAY-LIGHTHOUSE,90015,-38.86,143.51,r1i1p1,rcp26,CNRM-CM5,2040-2059,17.39,20.68,18.04,13.94,16.92,19.68,15.09,21.29,21.27,20.23,17.91,16.21,14.19,13.35,14.29,15.45,17.04,18.2,19.5
CARNARVON-AIRPORT,6011,-24.89,113.67,r1i1p1,rcp26,CNRM-CM5,2040-2059,28.66,32.51,30.59,24.25,27.31,31.75,25.57,32.53,34.34,32.99,30.83,27.95,24.98,23.41,24.35,25.75,27.01,29.16,30.66
CEDUNA-AMO,18012,-32.13,133.7,r1i1p1,rcp26,CNRM-CM5,2040-2059,25.03,29.58,25.62,19.49,25.45,28.47,21.58,30.34,29.35,28.75,25.55,22.55,19.67,18.55,20.24,23.34,25.13,27.86,29.05
CHARLEVILLE-AERO,44021,-26.41,146.26,r1i1p1,rcp26,CNRM-CM5,2040-2059,29.67,36.05,29.8,22.04,30.79,34.15,25.2,37.43,34.77,34.63,28.28,26.49,21.36,20.48,24.29,27.56,31.04,33.78,35.88
CHARTERS-TOWERS-AIRPORT,34084,-20.05,146.27,r1i1p1,rcp26,CNRM-CM5,2040-2059,30.96,34.81,30.48,26.1,32.48,33.65,28.27,35.16,33.97,32.46,30.68,28.29,26.35,25.32,26.63,30.4,32.64,34.42,35.22
COBAR-MO,48027,-31.48,145.83,r1i1p1,rcp26,CNRM-CM5,2040-2059,26.52,35.06,26.37,18.02,26.61,32.09,20.94,36.36,34.75,31.54,25.91,21.64,17.98,16.71,19.38,23.4,26.56,29.87,34.09
COFFS-HARBOUR-MO,59040,-30.31,153.12,r1i1p1,rcp26,CNRM-CM5,2040-2059,24.18,27.65,24.38,20.18,24.51,26.57,21.8,28.13,27.73,26.37,24.48,22.29,20.22,19.39,20.94,23.13,24.81,25.6,27.12
CUNDERDIN-AIRFIELD,10286,-31.62,117.22,r1i1p1,rcp26,CNRM-CM5,2040-2059,26.6,34.68,27.49,18.01,26.15,32.41,20.74,35.49,35.07,32.04,27.79,22.62,19.0,16.94,18.09,21.77,26.05,30.64,33.66
DALWALLINU-COMPARISON,8039,-30.28,116.66,r1i1p1,rcp26,CNRM-CM5,2040-2059,27.45,35.67,28.4,18.83,26.86,33.3,21.57,36.63,36.2,33.14,28.73,23.33,19.6,17.71,19.18,22.81,26.76,31.0,34.35
DARWIN-AIRPORT,14015,-12.42,130.89,r1i1p1,rcp26,CNRM-CM5,2040-2059,32.93,32.69,33.16,31.87,33.99,33.15,32.69,32.62,32.3,32.9,33.72,32.87,31.76,31.64,32.22,33.53,34.15,34.3,33.21
DENILIQUIN-AIRPORT-AWS,74258,-35.56,144.95,r1i1p1,rcp26,CNRM-CM5,2040-2059,23.99,32.18,24.31,15.78,23.68,29.53,18.45,33.22,32.58,29.41,23.83,19.69,15.75,14.8,16.79,20.02,23.66,27.37,30.77
DUBBO-AIRPORT-AWS,65070,-32.22,148.58,r1i1p1,rcp26,CNRM-CM5,2040-2059,25.2,33.5,25.58,16.76,24.94,30.75,19.64,34.65,33.29,30.23,25.33,21.16,16.95,15.56,17.78,21.29,25.1,28.44,32.57
EAST-SALE-AIRPORT,85072,-38.12,147.13,r1i1p1,rcp26,CNRM-CM5,2040-2059,20.57,25.62,21.21,15.42,20.01,24.02,17.11,26.41,26.45,24.65,20.87,18.1,15.35,14.67,16.26,18.06,20.23,21.75,24.08
ESPERANCE,9789,-33.83,121.89,r1i1p1,rcp26,CNRM-CM5,2040-2059,22.6,26.55,23.95,17.98,21.89,25.67,19.51,27.36,27.33,26.31,24.08,21.44,18.58,17.12,18.23,20.13,21.54,24.0,25.12
EUCLA,11003,-31.68,128.88,r1i1p1,rcp26,CNRM-CM5,2040-2059,24.09,27.03,24.81,19.72,24.85,26.53,21.67,27.72,26.69,26.96,24.81,22.66,20.0,18.75,20.39,23.29,24.93,26.33,26.69
FORREST,11052,-30.85,128.11,r1i1p1,rcp26,CNRM-CM5,2040-2059,27.0,33.08,27.08,20.0,27.84,31.28,22.72,34.55,32.45,30.64,26.91,23.71,20.05,18.94,21.02,25.29,27.33,30.88,32.25
GABO-ISLAND-LIGHTHOUSE,84016,-37.57,149.92,r1i1p1,rcp26,CNRM-CM5,2040-2059,19.18,22.32,20.17,15.87,18.32,21.39,16.95,23.0,23.13,22.17,20.05,18.3,16.26,15.3,16.05,17.21,18.6,19.16,20.88
GAYNDAH-AIRPORT,39066,-25.62,151.62,r1i1p1,rcp26,CNRM-CM5,2040-2059,29.39,33.92,29.3,24.04,30.34,32.53,26.25,34.67,33.45,31.78,29.4,26.71,24.11,22.88,25.12,28.44,30.25,32.32,33.58
GEORGETOWN-AIRPORT,30124,-18.3,143.53,r1i1p1,rcp26,CNRM-CM5,2040-2059,33.69,35.74,33.24,29.83,35.98,35.48,31.91,35.82,34.72,34.58,33.79,31.35,29.72,29.28,30.49,34.28,36.33,37.33,36.58
GERALDTON-AIRPORT-COMPARISON,8051,-28.8,114.7,r1i1p1,rcp26,CNRM-CM5,2040-2059,27.11,32.49,29.18,21.01,25.69,31.31,22.87,32.62,34.28,32.36,29.53,25.65,22.18,20.08,20.78,23.16,25.36,28.55,30.75
GILES-METEOROLOGICAL-OFFICE,13017,-25.03,128.3,r1i1p1,rcp26,CNRM-CM5,2040-2059,30.46,37.42,30.02,22.01,32.38,35.46,25.46,38.8,36.5,35.39,29.58,25.08,21.65,20.83,23.56,29.08,32.53,35.51,36.94
GROVE-RESEARCH-STATION,94220,-42.99,147.07,r1i1p1,rcp26,CNRM-CM5,2040-2059,18.2,22.61,18.53,13.75,17.84,21.2,15.17,23.25,23.4,21.62,18.23,15.74,13.39,13.25,14.6,16.09,17.98,19.45,21.35
GUNNEDAH-RESOURCE-CENTRE,55024,-31.03,150.27,r1i1p1,rcp26,CNRM-CM5,2040-2059,25.67,32.89,25.98,17.91,25.92,30.6,20.74,34.0,32.44,30.2,25.78,21.95,17.88,16.7,19.14,22.63,26.11,29.01,32.19
HALLS-CREEK-AIRPORT,2012,-18.23,127.66,r1i1p1,rcp26,CNRM-CM5,2040-2059,34.81,37.45,34.41,29.52,37.83,37.32,32.31,37.85,36.33,37.39,34.61,31.24,28.68,28.81,31.07,35.83,38.22,39.43,38.26
HOBART-ELLERSLIE-ROAD,94029,-42.89,147.33,r1i1p1,rcp26,CNRM-CM5,2040-2059,18.48,22.56,18.89,14.1,18.32,21.29,15.66,23.09,23.19,21.61,18.76,16.31,13.64,13.59,15.07,16.76,18.57,19.65,21.55
HORN-ISLAND,27058,-10.58,142.29,r1i1p1,rcp26,CNRM-CM5,2040-2059,30.89,31.77,30.99,29.37,31.48,31.76,30.05,31.63,31.36,31.41,31.1,30.48,29.8,29.19,29.13,30.13,31.61,32.69,32.36
INVERELL-RAGLAN-ST,56242,-29.78,151.11,r1i1p1,rcp26,CNRM-CM5,2040-2059,24.56,30.74,25.07,17.79,24.67,28.83,20.3,31.8,30.31,28.68,24.85,21.68,17.85,16.63,18.88,21.94,24.82,27.26,30.06
JERVIS-BAY-POINT-PERPENDICULAR-AWS,68151,-35.09,150.8,r1i1p1,rcp26,CNRM-CM5,2040-2059,21.14,24.87,21.76,17.09,20.9,23.69,18.59,25.43,25.19,23.98,21.75,19.55,17.24,16.33,17.71,19.44,21.28,22.0,23.96
KALGOORLIE-BOULDER-AIRPORT,12038,-30.78,121.45,r1i1p1,rcp26,CNRM-CM5,2040-2059,26.61,33.8,26.74,18.66,27.23,31.6,21.61,35.2,33.22,31.11,26.68,22.43,18.72,17.6,19.64,24.12,27.14,30.41,33.02
KALUMBURU,1019,-14.3,126.65,r1i1p1,rcp26,CNRM-CM5,2040-2059,35.0,34.79,34.85,33.16,37.12,35.38,34.62,34.97,33.95,34.94,35.39,34.23,32.84,32.89,33.79,36.31,37.49,37.54,35.5
KATANNING-COMPARISON,10579,-33.69,117.56,r1i1p1,rcp26,CNRM-CM5,2040-2059,23.54,30.51,24.66,16.31,22.62,28.61,18.43,31.06,31.09,28.62,24.86,20.51,17.05,15.33,16.55,18.91,22.24,26.71,29.6
KERANG,80023,-35.72,143.92,r1i1p1,rcp26,CNRM-CM5,2040-2059,23.92,31.71,24.18,16.14,23.63,29.18,18.65,32.75,32.03,29.17,23.74,19.63,16.04,15.14,17.24,20.21,23.65,27.04,30.39
KYANCUTTA,18044,-33.13,135.56,r1i1p1,rcp26,CNRM-CM5,2040-2059,26.39,33.31,26.86,19.07,26.31,31.24,21.53,34.38,33.26,31.34,26.56,22.69,19.33,18.13,19.76,23.19,26.06,29.68,32.27
LARAPUNA-EDDYSTONE-POINT,92045,-40.99,148.35,r1i1p1,rcp26,CNRM-CM5,2040-2059,18.34,21.75,19.39,14.8,17.5,20.8,15.87,22.26,22.32,21.75,18.97,17.17,14.97,14.37,15.07,16.1,17.65,18.76,20.77
LAUNCESTON-AIRPORT,91311,-41.55,147.21,r1i1p1,rcp26,CNRM-CM5,2040-2059,18.58,24.05,19.17,13.05,17.98,22.44,14.69,24.65,24.98,23.35,18.74,15.44,12.95,12.43,13.78,15.47,18.08,20.38,22.72
LAVERTON-RAAF,87031,-37.86,144.76,r1i1p1,rcp26,CNRM-CM5,2040-2059,20.75,25.86,21.3,15.55,20.27,24.27,17.23,26.57,26.58,24.79,20.97,18.14,15.57,14.86,16.21,18.11,20.49,22.22,24.48
LEARMONTH-AIRPORT,5007,-22.24,114.1,r1i1p1,rcp26,CNRM-CM5,2040-2059,32.76,38.2,33.64,26.19,32.98,36.86,28.65,39.1,38.15,37.24,34.03,29.64,26.11,25.17,27.29,30.21,33.47,35.25,37.49
LONGREACH-AERO,36031,-23.44,144.28,r1i1p1,rcp26,CNRM-CM5,2040-2059,32.76,38.55,32.68,25.56,34.29,36.84,28.71,39.67,37.92,36.94,31.9,29.2,24.5,25.01,27.19,31.01,35.33,36.52,37.96
LOW-HEAD,91293,-41.06,146.79,r1i1p1,rcp26,CNRM-CM5,2040-2059,17.1,20.51,18.23,13.62,16.01,19.6,14.58,20.88,21.53,20.66,18.07,15.95,14.05,13.09,13.73,14.51,16.17,17.34,19.25
MACKAY-M.O,33119,-21.12,149.22,r1i1p1,rcp26,CNRM-CM5,2040-2059,27.31,30.96,27.29,22.89,28.09,29.9,24.7,31.18,30.75,29.25,27.33,25.28,23.35,22.13,23.18,26.16,28.1,30.02,30.93
MARBLE-BAR,4106,-21.18,119.75,r1i1p1,rcp26,CNRM-CM5,2040-2059,36.01,40.55,35.74,29.06,38.73,39.77,32.2,41.15,38.88,39.16,36.16,31.9,28.54,28.12,30.51,35.35,38.97,41.6,41.77
MARREE,17031,-29.65,138.06,r1i1p1,rcp26,CNRM-CM5,2040-2059,30.08,38.32,29.85,21.44,30.73,35.73,24.43,39.75,37.68,35.56,29.27,24.71,21.21,20.2,22.9,27.6,29.98,34.61,37.48
MEEKATHARRA-AIRPORT,7045,-26.61,118.54,r1i1p1,rcp26,CNRM-CM5,2040-2059,30.19,38.14,30.6,21.17,30.8,35.81,24.55,39.1,38.07,35.37,30.41,26.02,20.87,19.88,22.74,26.9,30.88,34.62,37.41
MELBOURNE-REGIONAL-OFFICE,86071,-37.81,144.97,r1i1p1,rcp26,CNRM-CM5,2040-2059,21.28,26.62,21.8,15.8,20.86,24.95,17.6,27.26,27.44,25.49,21.4,18.5,15.72,15.05,16.63,18.61,21.1,22.87,25.22
MERREDIN,10092,-31.48,118.28,r1i1p1,rcp26,CNRM-CM5,2040-2059,26.61,34.59,27.46,18.02,26.32,32.32,20.87,35.47,34.89,32.12,27.57,22.68,18.84,16.92,18.32,22.23,26.25,30.48,33.6
MILDURA-AIRPORT,76031,-34.24,142.09,r1i1p1,rcp26,CNRM-CM5,2040-2059,24.94,32.55,24.82,17.4,25.0,30.0,19.89,33.54,32.62,29.71,24.32,20.44,17.45,16.27,18.49,21.66,25.01,28.32,31.49
MILES-CONSTANCE-STREET,42112,-26.66,150.18,r1i1p1,rcp26,CNRM-CM5,2040-2059,28.23,33.88,28.26,21.53,29.26,32.22,24.23,34.91,33.07,31.65,28.37,24.75,21.48,20.11,23.01,26.73,29.33,31.72,33.64
MORAWA-AIRPORT,8296,-29.2,116.02,r1i1p1,rcp26,CNRM-CM5,2040-2059,28.7,36.97,29.49,20.22,28.37,34.59,23.04,37.93,37.6,34.37,30.23,24.79,20.9,19.19,20.57,24.45,28.37,32.29,35.77
MOREE-AERO,53115,-29.49,149.85,r1i1p1,rcp26,CNRM-CM5,2040-2059,27.16,34.11,27.34,19.48,27.76,31.95,22.39,35.1,33.53,31.41,27.07,23.54,19.6,18.14,20.7,24.41,27.93,30.92,33.59
MORUYA-HEADS-PILOT-STATION,69018,-35.91,150.15,r1i1p1,rcp26,CNRM-CM5,2040-2059,21.29,24.4,21.98,17.81,20.99,23.43,19.14,24.99,24.9,24.07,21.8,20.06,17.93,17.12,18.37,19.89,21.45,21.62,23.34
MOUNT-GAMBIER-AERO,26021,-37.75,140.77,r1i1p1,rcp26,CNRM-CM5,2040-2059,20.06,25.4,20.8,14.94,19.07,23.75,16.35,25.96,26.27,24.43,20.49,17.47,15.12,14.28,15.42,16.96,18.86,21.4,24.09
NHILL-AERODROME,78015,-36.31,141.65,r1i1p1,rcp26,CNRM-CM5,2040-2059,23.3,30.8,23.77,16.05,22.57,28.42,18.18,31.53,31.29,28.63,23.28,19.39,16.06,15.22,16.87,19.09,22.47,26.15,29.63
NORMANTON-AIRPORT,29063,-17.69,141.07,r1i1p1,rcp26,CNRM-CM5,2040-2059,34.41,35.8,34.6,30.89,36.36,35.95,32.87,35.83,35.03,35.69,35.33,32.76,30.68,30.26,31.74,35.18,36.63,37.28,36.49
NORTH-SHIELDS-PORT-LINCOLN-AWS,18192,-34.6,135.88,r1i1p1,rcp26,CNRM-CM5,2040-2059,21.84,25.98,22.67,17.3,21.42,24.86,18.81,26.62,26.17,24.96,22.63,20.42,17.78,16.67,17.45,19.27,21.28,23.72,25.17
NOWRA-RAN-AIR-STATION-AWS,68072,-34.95,150.54,r1i1p1,rcp26,CNRM-CM5,2040-2059,22.86,27.19,23.26,18.09,22.9,25.8,19.92,27.91,27.31,25.87,23.29,20.63,18.02,17.28,18.96,21.29,23.31,24.11,26.35
NURIOOTPA-VITICULTURAL,23373,-34.48,139.01,r1i1p1,rcp26,CNRM-CM5,2040-2059,22.13,29.15,22.68,15.14,21.55,26.97,17.29,30.13,29.36,27.09,22.35,18.62,15.44,14.28,15.7,18.4,21.29,24.97,27.93
OODNADATTA-AIRPORT,17043,-27.56,135.45,r1i1p1,rcp26,CNRM-CM5,2040-2059,31.24,38.27,29.68,21.74,31.5,35.68,24.92,40.03,37.07,35.18,28.87,24.98,21.42,20.42,23.37,28.38,30.78,35.33,38.16
ORBOST,84145,-37.69,148.47,r1i1p1,rcp26,CNRM-CM5,2040-2059,20.6,25.36,21.16,15.88,20.04,23.85,17.38,26.37,26.35,24.33,20.77,18.38,15.75,15.2,16.68,18.19,20.06,21.88,23.64
PALMERVILLE,28004,-16.0,144.08,r1i1p1,rcp26,CNRM-CM5,2040-2059,33.62,34.75,32.63,31.01,35.99,34.54,32.69,34.38,33.78,32.99,33.07,31.83,31.08,30.31,31.51,34.4,36.62,37.18,36.1
PERTH-AIRPORT,9021,-31.93,115.98,r1i1p1,rcp26,CNRM-CM5,2040-2059,26.05,32.25,27.37,19.65,24.82,30.65,21.4,33.37,33.32,31.57,27.27,23.27,20.06,18.83,20.06,21.87,24.28,28.29,30.35
PORT-HEDLAND-AIRPORT,4032,-20.37,118.63,r1i1p1,rcp26,CNRM-CM5,2040-2059,34.13,36.61,35.5,29.05,35.28,36.86,31.35,36.69,36.78,37.82,36.23,32.44,28.65,28.52,29.98,32.53,35.99,37.32,36.62
PORT-MACQUARIE-AIRPORT-AWS,60139,-31.43,152.87,r1i1p1,rcp26,CNRM-CM5,2040-2059,24.27,28.06,24.47,20.06,24.56,26.82,21.75,28.65,28.28,26.72,24.42,22.26,20.1,19.15,20.94,23.31,24.73,25.63,27.33
RABBIT-FLAT,15666,-20.18,130.01,r1i1p1,rcp26,CNRM-CM5,2040-2059,34.77,39.27,34.05,28.23,37.48,38.34,31.19,40.12,37.71,38.0,34.31,29.85,27.51,27.2,30.0,35.05,37.54,39.87,40.05
RICHMOND-POST-OFFICE,30045,-20.73,143.14,r1i1p1,rcp26,CNRM-CM5,2040-2059,33.49,37.64,33.05,27.73,35.55,36.61,30.37,38.26,36.76,35.82,33.44,29.89,27.55,26.77,28.86,33.35,35.8,37.48,37.83
RICHMOND-RAAF,67105,-33.6,150.78,r1i1p1,rcp26,CNRM-CM5,2040-2059,24.62,29.89,24.37,19.05,25.19,28.03,21.21,30.93,29.6,27.4,24.35,21.35,18.72,18.13,20.29,23.12,25.67,26.79,29.07
ROBE-COMPARISON,26026,-37.16,139.76,r1i1p1,rcp26,CNRM-CM5,2040-2059,19.26,22.83,19.93,15.47,18.8,21.84,16.68,23.33,23.1,22.26,19.73,17.78,15.78,14.82,15.8,17.16,18.76,20.48,22.13
ROCKHAMPTON-AERO,39083,-23.38,150.48,r1i1p1,rcp26,CNRM-CM5,2040-2059,29.52,33.13,29.63,24.98,30.32,32.12,26.9,33.56,32.9,31.7,29.68,27.5,25.22,24.08,25.65,28.73,30.2,32.03,32.93
RUTHERGLEN-RESEARCH,82039,-36.1,146.51,r1i1p1,rcp26,CNRM-CM5,2040-2059,22.63,31.43,23.36,14.17,21.55,28.53,16.73,32.52,31.99,28.62,22.94,18.52,14.21,13.22,15.08,18.02,21.31,25.33,29.83
SCONE-AIRPORT-AWS,61363,-32.03,150.83,r1i1p1,rcp26,CNRM-CM5,2040-2059,24.95,31.57,24.96,17.79,25.46,29.43,20.45,32.55,31.09,28.62,25.03,21.23,17.66,16.7,19.0,22.39,25.7,28.3,31.1
SNOWTOWN-RAYVILLE-PARK,21133,-33.77,138.22,r1i1p1,rcp26,CNRM-CM5,2040-2059,24.58,32.22,25.03,16.89,24.18,29.79,19.35,33.41,32.31,29.47,24.75,20.88,17.29,15.97,17.41,20.42,24.14,27.96,30.97
ST-GEORGE-AIRPORT,43109,-28.05,148.59,r1i1p1,rcp26,CNRM-CM5,2040-2059,28.52,35.32,28.36,20.95,29.48,33.15,23.91,36.37,34.45,32.44,28.23,24.42,20.92,19.49,22.44,26.56,29.61,32.27,35.06
SYDNEY-OBSERVATORY-HILL,66062,-33.86,151.21,r1i1p1,rcp26,CNRM-CM5,2040-2059,23.38,27.24,23.82,18.92,23.53,26.05,20.7,27.84,27.43,26.17,23.89,21.41,18.86,18.06,19.85,22.09,23.94,24.56,26.48
TARCOOLA-AERO,16098,-30.71,134.58,r1i1p1,rcp26,CNRM-CM5,2040-2059,28.17,35.77,28.01,20.16,28.77,33.33,23.02,37.55,35.43,32.92,27.42,23.69,20.05,19.16,21.25,25.68,28.27,32.35,34.68
TENNANT-CREEK-AIRPORT,15135,-19.64,134.18,r1i1p1,rcp26,CNRM-CM5,2040-2059,33.01,37.55,32.54,26.72,35.22,36.52,29.51,38.17,36.65,36.32,32.67,28.64,26.05,25.72,28.39,32.96,35.29,37.42,37.84
THARGOMINDAH-AIRPORT,45025,-27.99,143.81,r1i1p1,rcp26,CNRM-CM5,2040-2059,30.03,38.07,29.57,21.64,30.85,35.37,24.72,39.57,36.97,34.85,28.95,24.92,21.44,20.23,23.24,27.64,30.83,34.08,37.68
TIBOOBURRA-POST-OFFICE,46037,-29.43,142.01,r1i1p1,rcp26,CNRM-CM5,2040-2059,28.63,37.04,28.0,20.21,29.29,34.13,23.13,38.65,36.27,33.52,27.31,23.18,20.07,18.81,21.75,26.15,28.84,32.86,36.2
TOWNSVILLE-AERO,32040,-19.25,146.77,r1i1p1,rcp26,CNRM-CM5,2040-2059,30.14,32.64,30.67,26.91,30.36,32.1,28.19,32.71,32.57,32.09,30.83,29.1,27.5,26.34,26.89,28.93,30.38,31.77,32.53
VICTORIA-RIVER-DOWNS,14825,-16.4,131.01,r1i1p1,rcp26,CNRM-CM5,2040-2059,35.97,37.5,35.65,31.86,38.8,37.59,34.34,37.67,36.45,37.24,36.04,33.67,31.15,31.14,33.25,37.4,39.24,39.77,38.33
WAGGA-WAGGA-AMO,72150,-35.16,147.46,r1i1p1,rcp26,CNRM-CM5,2040-2059,23.31,32.31,23.95,14.56,22.39,29.33,17.28,33.5,32.74,29.11,23.62,19.12,14.57,13.57,15.55,18.58,22.32,26.27,30.75
WALGETT-AIRPORT-AWS,52088,-30.04,148.12,r1i1p1,rcp26,CNRM-CM5,2040-2059,28.25,36.2,28.15,19.94,28.74,33.54,22.97,37.33,35.65,32.85,27.8,23.79,19.81,18.59,21.41,25.33,28.9,32.0,35.56
WANDERING,10917,-32.67,116.67,r1i1p1,rcp26,CNRM-CM5,2040-2059,24.46,32.29,25.51,16.66,23.27,30.08,18.78,32.98,32.82,30.0,25.74,20.78,17.42,15.76,16.82,19.32,22.57,27.93,31.33
WEIPA-AERO,27045,-12.68,141.92,r1i1p1,rcp26,CNRM-CM5,2040-2059,33.34,33.09,32.83,31.95,35.46,33.49,33.16,32.92,32.3,32.74,33.2,32.55,31.82,31.58,32.46,34.53,36.03,35.83,34.14
WILCANNIA-REID-ST,46043,-31.56,143.37,r1i1p1,rcp26,CNRM-CM5,2040-2059,27.52,35.69,27.09,19.35,27.93,32.86,22.16,36.86,35.62,32.58,26.33,22.38,19.24,18.1,20.71,24.87,27.67,31.25,34.6
WILLIAMTOWN-RAAF,61078,-32.79,151.84,r1i1p1,rcp26,CNRM-CM5,2040-2059,24.22,29.08,24.23,18.83,24.75,27.47,20.96,29.9,28.87,26.84,24.4,21.44,18.65,17.9,19.93,22.66,25.21,26.38,28.43
WILSONS-PROMONTORY-LIGHTHOUSE,85096,-39.13,146.42,r1i1p1,rcp26,CNRM-CM5,2040-2059,17.15,20.49,17.99,13.61,16.47,19.51,14.77,21.09,21.37,20.17,17.75,16.07,13.96,13.12,13.74,15.11,16.64,17.67,19.11
WITTENOOM,5026,-22.24,118.34,r1i1p1,rcp26,CNRM-CM5,2040-2059,34.12,39.7,33.81,26.57,36.38,38.44,29.8,40.29,38.23,37.82,34.02,29.6,25.92,25.68,28.12,32.85,36.65,39.63,40.66
WOOMERA-AERODROME,16001,-31.16,136.81,r1i1p1,rcp26,CNRM-CM5,2040-2059,26.98,34.81,26.78,18.96,27.37,32.22,21.73,36.14,34.48,31.96,26.04,22.36,18.74,17.91,20.24,24.3,26.85,30.97,33.76
WYALONG-POST-OFFICE,73054,-33.93,147.24,r1i1p1,rcp26,CNRM-CM5,2040-2059,24.67,33.52,25.2,15.8,24.13,30.57,18.75,34.77,33.85,30.23,24.84,20.52,15.86,14.65,16.89,20.36,24.24,27.8,32.02
YAMBA-PILOT-STATION,58012,-29.43,153.36,r1i1p1,rcp26,CNRM-CM5,2040-2059,24.65,27.86,25.11,20.98,24.68,26.93,22.38,28.18,28.29,26.92,25.3,23.1,21.05,20.22,21.66,23.46,24.81,25.77,27.08
ADELAIDE-KENT-TOWN,23090,-34.92,138.62,r1i1p1,rcp26,CanESM2,2040-2059,23.88,30.43,24.59,17.1,23.41,28.67,19.09,31.07,31.93,29.1,24.57,20.1,17.09,16.52,17.68,20.49,22.64,27.09,28.29
ALBANY-AIRPORT-COMPARISON,9741,-34.94,117.8,r1i1p1,rcp26,CanESM2,2040-2059,21.26,25.08,22.99,16.81,20.09,24.4,18.08,25.29,26.07,25.47,23.6,19.9,17.21,16.54,16.68,18.38,19.76,22.14,24.05
ALICE-SPRINGS-AIRPORT,15590,-23.8,133.89,r1i1p1,rcp26,CanESM2,2040-2059,31.16,38.29,30.19,22.55,33.58,36.3,26.01,40.21,37.71,35.93,30.29,24.36,20.73,21.92,25.0,30.35,33.71,36.69,36.98
AMBERLEY-AMO,40004,-27.63,152.71,r1i1p1,rcp26,CanESM2,2040-2059,28.55,32.41,28.41,23.57,29.84,31.29,25.82,33.02,32.16,30.93,28.58,25.72,23.15,23.36,24.21,28.36,30.11,31.05,32.01
BARCALDINE-POST-OFFICE,36007,-23.55,145.29,r1i1p1,rcp26,CanESM2,2040-2059,32.48,37.5,32.14,25.85,34.45,36.13,28.85,38.56,36.55,36.02,31.78,28.63,24.94,25.2,27.42,31.59,35.3,36.45,37.3
BATHURST-AGRICULTURAL-STATION,63005,-33.43,149.56,r1i1p1,rcp26,CanESM2,2040-2059,21.7,29.12,22.01,13.77,21.9,26.94,16.45,30.56,29.11,26.27,22.32,17.43,13.79,13.17,14.34,18.49,21.49,25.72,27.76
BIRDSVILLE-AIRPORT,38026,-25.9,139.35,r1i1p1,rcp26,CanESM2,2040-2059,32.85,40.42,32.29,23.96,34.73,38.41,27.29,42.32,39.49,38.09,32.67,26.13,22.97,23.24,25.66,31.11,34.64,38.44,39.42
BOULIA-AIRPORT,38003,-22.91,139.9,r1i1p1,rcp26,CanESM2,2040-2059,34.25,40.41,33.63,26.56,36.38,38.73,29.76,41.69,39.7,38.55,33.64,28.69,25.22,25.95,28.5,33.06,37.13,38.95,39.89
BOURKE-AIRPORT-AWS,48245,-30.04,145.95,r1i1p1,rcp26,CanESM2,2040-2059,29.39,37.23,29.0,20.47,30.85,35.12,23.67,39.24,36.31,34.3,29.51,23.2,20.02,19.61,21.78,26.88,30.53,35.15,36.15
BRIDGETOWN-COMPARISON,9510,-33.96,116.14,r1i1p1,rcp26,CanESM2,2040-2059,23.79,30.19,25.02,17.56,22.29,28.42,19.1,30.8,31.26,28.98,25.29,20.8,18.05,17.14,17.5,19.35,21.75,25.77,28.8
BRISBANE-AERO,40842,-27.39,153.12,r1i1p1,rcp26,CanESM2,2040-2059,26.61,30.06,26.98,22.4,27.03,29.07,24.16,30.52,30.28,29.06,27.06,24.81,22.34,22.21,22.65,25.74,27.19,28.15,29.34
BROOME-AIRPORT,3003,-17.95,122.23,r1i1p1,rcp26,CanESM2,2040-2059,33.56,34.57,34.88,30.89,33.87,34.99,32.11,34.92,34.38,35.61,35.84,33.2,30.56,30.5,31.61,32.79,34.03,34.79,34.47
BUNDABERG-AERO,39128,-24.91,152.32,r1i1p1,rcp26,CanESM2,2040-2059,27.98,31.29,28.44,23.9,28.29,30.39,25.56,31.67,31.49,30.52,28.56,26.24,23.79,23.52,24.38,26.98,28.43,29.47,30.72
BURKETOWN-AIRPORT,29077,-17.75,139.54,r1i1p1,rcp26,CanESM2,2040-2059,34.65,36.24,34.76,31.0,36.61,36.28,33.03,36.25,35.24,35.68,35.31,33.3,30.4,30.49,32.1,34.59,37.29,37.96,37.15
BUTLERS-GORGE,96003,-42.28,146.28,r1i1p1,rcp26,CanESM2,2040-2059,14.44,19.43,14.88,9.63,13.75,18.03,10.83,20.18,20.72,18.16,14.9,11.58,9.98,8.94,9.96,10.93,13.58,16.74,17.57
CABRAMURRA-SMHEA-AWS,72161,-35.94,148.38,r1i1p1,rcp26,CanESM2,2040-2059,13.04,20.5,14.05,5.05,12.51,18.42,7.63,21.58,21.52,18.65,13.97,9.53,5.81,4.48,4.87,9.02,12.06,16.45,18.54
CAIRNS-AERO,31011,-16.87,145.75,r1i1p1,rcp26,CanESM2,2040-2059,30.57,32.92,30.75,27.61,31.04,32.28,28.88,33.36,32.57,32.03,30.82,29.42,27.41,27.37,28.05,29.7,31.35,32.07,32.75
CAMOOWEAL-TOWNSHIP,37010,-19.92,138.12,r1i1p1,rcp26,CanESM2,2040-2059,35.37,39.72,35.08,29.19,38.04,38.83,32.16,40.37,39.0,38.18,35.52,31.54,27.84,28.58,31.15,35.34,38.94,40.12,39.77
CANBERRA-AIRPORT,70351,-35.31,149.2,r1i1p1,rcp26,CanESM2,2040-2059,21.78,29.1,22.12,13.92,21.93,27.01,16.53,30.62,29.4,25.76,23.25,17.36,14.03,13.63,14.12,18.62,21.44,25.73,27.38
CAPE-BORDA,22823,-35.75,136.6,r1i1p1,rcp26,CanESM2,2040-2059,19.73,24.12,20.51,15.46,18.79,22.95,16.48,24.58,25.42,23.57,20.42,17.55,15.8,15.21,15.36,16.77,18.17,21.44,22.43
CAPE-BRUNY-LIGHTHOUSE,94010,-43.49,147.15,r1i1p1,rcp26,CanESM2,2040-2059,16.55,19.58,17.35,13.33,15.92,18.77,14.32,20.04,20.66,19.29,17.55,15.22,13.24,13.11,13.64,14.97,15.77,17.02,18.14
CAPE-LEEUWIN,9518,-34.37,115.14,r1i1p1,rcp26,CanESM2,2040-2059,20.87,23.68,22.45,17.87,19.46,23.19,18.54,23.81,24.44,23.93,22.89,20.52,18.61,17.66,17.33,18.03,19.12,21.24,22.89
CAPE-MORETON-LIGHTHOUSE,40043,-27.03,153.47,r1i1p1,rcp26,CanESM2,2040-2059,25.16,28.64,25.74,21.19,25.28,27.64,22.75,28.97,29.05,27.81,25.83,23.71,21.21,21.05,21.29,23.88,25.37,26.58,27.88
CAPE-OTWAY-LIGHTHOUSE,90015,-38.86,143.51,r1i1p1,rcp26,CanESM2,2040-2059,17.9,21.4,18.8,14.12,17.29,20.56,15.23,21.98,22.65,21.26,19.08,16.28,14.22,13.81,14.36,15.64,17.05,19.09,19.64
CARNARVON-AIRPORT,6011,-24.89,113.67,r1i1p1,rcp26,CanESM2,2040-2059,28.92,32.59,30.95,24.51,27.64,32.05,25.8,32.39,34.68,33.67,31.46,27.73,25.06,24.13,24.34,25.84,27.73,29.36,30.7
CEDUNA-AMO,18012,-32.13,133.7,r1i1p1,rcp26,CanESM2,2040-2059,25.22,29.51,25.96,19.58,25.83,28.78,21.65,30.13,30.48,29.47,26.33,22.07,19.46,19.17,20.13,23.67,25.43,28.39,27.94
CHARLEVILLE-AERO,44021,-26.41,146.26,r1i1p1,rcp26,CanESM2,2040-2059,30.48,36.13,30.54,22.76,32.5,34.7,26.28,37.84,34.86,35.3,29.2,27.12,21.27,22.02,24.98,29.09,33.21,35.22,35.62
CHARTERS-TOWERS-AIRPORT,34084,-20.05,146.27,r1i1p1,rcp26,CanESM2,2040-2059,31.93,35.66,31.36,27.04,33.67,34.5,29.36,36.38,34.5,33.6,31.24,29.24,26.32,26.46,28.35,31.42,34.36,35.24,36.04
COBAR-MO,48027,-31.48,145.83,r1i1p1,rcp26,CanESM2,2040-2059,27.19,35.3,26.94,18.26,28.27,33.05,21.33,37.22,34.53,32.15,27.51,21.16,17.85,17.54,19.38,24.34,27.74,32.74,34.13
COFFS-HARBOUR-MO,59040,-30.31,153.12,r1i1p1,rcp26,CanESM2,2040-2059,24.87,28.22,25.15,20.78,25.32,27.23,22.51,28.64,28.61,27.2,25.38,22.89,20.71,20.44,21.2,24.2,25.63,26.14,27.42
CUNDERDIN-AIRFIELD,10286,-31.62,117.22,r1i1p1,rcp26,CanESM2,2040-2059,26.79,34.75,27.61,18.17,26.56,32.65,20.88,35.49,35.29,32.76,27.88,22.18,18.83,17.73,17.96,21.73,26.88,31.07,33.65
DALWALLINU-COMPARISON,8039,-30.28,116.66,r1i1p1,rcp26,CanESM2,2040-2059,27.66,35.66,28.55,19.09,27.28,33.52,21.75,36.45,36.54,33.96,28.86,22.82,19.51,18.6,19.15,22.79,27.66,31.39,34.18
DARWIN-AIRPORT,14015,-12.42,130.89,r1i1p1,rcp26,CanESM2,2040-2059,33.47,33.26,33.82,32.23,34.54,33.77,33.14,33.14,32.81,33.48,34.49,33.48,32.05,32.02,32.61,33.91,34.75,34.95,33.9
DENILIQUIN-AIRPORT-AWS,74258,-35.56,144.95,r1i1p1,rcp26,CanESM2,2040-2059,24.54,32.95,24.82,15.87,24.53,30.6,18.48,34.26,33.39,30.35,25.04,19.07,15.59,15.24,16.78,20.31,23.88,29.4,31.2
DUBBO-AIRPORT-AWS,65070,-32.22,148.58,r1i1p1,rcp26,CanESM2,2040-2059,25.81,33.58,25.87,17.23,26.55,31.4,20.21,34.96,33.39,30.45,26.3,20.85,17.24,16.63,17.82,22.43,26.31,30.9,32.4
EAST-SALE-AIRPORT,85072,-38.12,147.13,r1i1p1,rcp26,CanESM2,2040-2059,21.21,26.48,21.91,15.66,20.76,25.06,17.34,27.39,27.57,25.55,22.08,18.09,15.65,15.18,16.13,18.47,20.51,23.31,24.55
ESPERANCE,9789,-33.83,121.89,r1i1p1,rcp26,CanESM2,2040-2059,22.79,26.69,24.21,18.09,22.1,25.96,19.58,27.42,27.9,26.97,24.52,21.13,18.57,17.64,18.07,20.23,21.85,24.2,24.91
EUCLA,11003,-31.68,128.88,r1i1p1,rcp26,CanESM2,2040-2059,24.04,26.78,24.8,19.8,24.81,26.45,21.64,27.22,27.41,27.05,25.27,22.1,19.78,19.29,20.33,23.39,24.96,26.09,25.66
FORREST,11052,-30.85,128.11,r1i1p1,rcp26,CanESM2,2040-2059,27.04,32.84,27.19,20.12,27.99,31.31,22.76,34.18,33.45,30.99,27.61,22.96,19.7,19.64,21.02,25.61,27.61,30.74,30.92
GABO-ISLAND-LIGHTHOUSE,84016,-37.57,149.92,r1i1p1,rcp26,CanESM2,2040-2059,19.87,22.85,20.93,16.4,19.29,22.23,17.5,23.4,23.86,22.9,21.29,18.6,16.84,16.1,16.25,18.06,19.16,20.64,21.37
GAYNDAH-AIRPORT,39066,-25.62,151.62,r1i1p1,rcp26,CanESM2,2040-2059,29.92,34.22,29.86,24.4,31.22,32.97,26.87,34.84,33.91,32.7,29.92,26.96,24.01,23.96,25.24,29.35,31.68,32.63,33.84
GEORGETOWN-AIRPORT,30124,-18.3,143.53,r1i1p1,rcp26,CanESM2,2040-2059,34.46,36.43,33.81,30.59,37.04,36.13,32.8,36.71,34.67,35.04,34.18,32.22,29.65,30.29,31.83,35.09,37.75,38.28,37.84
GERALDTON-AIRPORT-COMPARISON,8051,-28.8,114.7,r1i1p1,rcp26,CanESM2,2040-2059,27.41,32.56,29.48,21.37,26.17,31.63,23.16,32.46,34.65,33.2,29.96,25.28,22.32,20.94,20.85,23.25,26.29,28.96,30.79
GILES-METEOROLOGICAL-OFFICE,13017,-25.03,128.3,r1i1p1,rcp26,CanESM2,2040-2059,31.5,38.07,31.21,22.73,33.99,36.61,26.4,39.47,37.79,37.15,31.22,25.25,21.29,22.07,24.84,30.39,34.56,37.02,36.95
GROVE-RESEARCH-STATION,94220,-42.99,147.07,r1i1p1,rcp26,CanESM2,2040-2059,18.89,23.35,19.46,14.29,18.38,22.06,15.7,24.02,24.56,22.49,19.54,16.36,13.96,13.89,15.03,16.65,18.28,20.22,21.66
GUNNEDAH-RESOURCE-CENTRE,55024,-31.03,150.27,r1i1p1,rcp26,CanESM2,2040-2059,26.38,33.12,26.55,18.58,27.29,31.22,21.54,34.26,33.08,30.69,26.83,22.11,18.38,18.0,19.36,24.0,27.36,30.5,31.98
HALLS-CREEK-AIRPORT,2012,-18.23,127.66,r1i1p1,rcp26,CanESM2,2040-2059,35.75,39.01,35.0,30.0,38.93,38.45,33.05,39.79,38.02,38.11,34.95,31.95,28.48,29.21,32.32,36.63,39.69,40.48,39.32
HOBART-ELLERSLIE-ROAD,94029,-42.89,147.33,r1i1p1,rcp26,CanESM2,2040-2059,19.21,23.34,19.87,14.68,18.89,22.19,16.21,23.88,24.39,22.51,20.12,16.98,14.26,14.26,15.51,17.35,18.88,20.44,21.88
HORN-ISLAND,27058,-10.58,142.29,r1i1p1,rcp26,CanESM2,2040-2059,31.55,32.28,31.73,30.04,32.2,32.37,30.79,32.28,31.67,31.94,32.09,31.18,30.3,29.82,30.01,31.06,32.4,33.15,32.96
INVERELL-RAGLAN-ST,56242,-29.78,151.11,r1i1p1,rcp26,CanESM2,2040-2059,25.36,31.17,25.78,18.52,25.98,29.53,21.19,32.17,31.17,29.43,25.85,22.05,18.34,18.08,19.14,23.39,26.16,28.38,30.12
JERVIS-BAY-POINT-PERPENDICULAR-AWS,68151,-35.09,150.8,r1i1p1,rcp26,CanESM2,2040-2059,21.88,25.36,22.57,17.78,21.88,24.47,19.29,25.86,25.83,24.76,22.91,20.03,17.99,17.26,18.09,20.52,21.87,23.26,24.37
KALGOORLIE-BOULDER-AIRPORT,12038,-30.78,121.45,r1i1p1,rcp26,CanESM2,2040-2059,26.9,33.81,27.05,18.89,27.82,31.94,21.85,35.04,34.1,32.0,27.35,21.8,18.5,18.5,19.67,24.54,28.06,30.86,32.34
KALUMBURU,1019,-14.3,126.65,r1i1p1,rcp26,CanESM2,2040-2059,35.67,35.69,35.38,33.59,37.9,36.16,35.17,36.02,34.79,35.63,35.76,34.74,32.99,33.39,34.45,37.03,38.21,38.47,36.29
KATANNING-COMPARISON,10579,-33.69,117.56,r1i1p1,rcp26,CanESM2,2040-2059,23.76,30.86,24.84,16.38,22.9,29.0,18.48,31.47,31.5,29.27,25.14,20.12,16.84,15.97,16.33,18.97,22.67,27.06,29.84
KERANG,80023,-35.72,143.92,r1i1p1,rcp26,CanESM2,2040-2059,24.45,32.57,24.73,16.17,24.32,30.28,18.61,33.8,33.21,30.19,24.99,19.0,15.71,15.52,17.27,20.44,23.74,28.79,30.72
KYANCUTTA,18044,-33.13,135.56,r1i1p1,rcp26,CanESM2,2040-2059,26.68,33.44,27.31,19.12,26.83,31.76,21.58,34.36,34.58,32.3,27.43,22.22,19.06,18.65,19.66,23.57,26.35,30.58,31.36
LARAPUNA-EDDYSTONE-POINT,92045,-40.99,148.35,r1i1p1,rcp26,CanESM2,2040-2059,19.19,22.7,20.37,15.52,18.24,21.82,16.54,23.14,23.74,22.69,20.34,17.81,15.65,15.29,15.63,16.86,18.1,19.77,21.3
LAUNCESTON-AIRPORT,91311,-41.55,147.21,r1i1p1,rcp26,CanESM2,2040-2059,19.29,24.91,20.05,13.58,18.57,23.37,15.18,25.57,26.29,24.19,20.01,15.95,13.42,13.14,14.16,16.06,18.36,21.3,23.07
LAVERTON-RAAF,87031,-37.86,144.76,r1i1p1,rcp26,CanESM2,2040-2059,21.34,26.82,22.02,15.7,20.81,25.37,17.32,27.63,28.09,25.85,22.21,18.01,15.65,15.3,16.14,18.28,20.55,23.6,24.79
LEARMONTH-AIRPORT,5007,-22.24,114.1,r1i1p1,rcp26,CanESM2,2040-2059,33.04,38.44,34.01,26.28,33.36,37.27,28.79,39.16,38.57,37.93,34.74,29.36,26.02,25.6,27.22,30.43,34.09,35.56,37.74
LONGREACH-AERO,36031,-23.44,144.28,r1i1p1,rcp26,CanESM2,2040-2059,33.9,39.22,33.84,26.58,35.97,37.77,30.05,40.32,38.53,38.27,32.73,30.52,24.58,26.45,28.72,32.32,37.69,37.89,38.72
LOW-HEAD,91293,-41.06,146.79,r1i1p1,rcp26,CanESM2,2040-2059,17.8,21.43,19.05,14.08,16.59,20.56,15.01,21.91,22.91,21.52,19.28,16.34,14.39,13.78,14.06,15.06,16.41,18.29,19.6
MACKAY-M.O,33119,-21.12,149.22,r1i1p1,rcp26,CanESM2,2040-2059,28.16,31.93,28.04,23.57,29.12,30.73,25.59,32.3,31.66,30.08,27.92,26.12,23.29,23.13,24.29,27.22,29.51,30.64,31.81
MARBLE-BAR,4106,-21.18,119.75,r1i1p1,rcp26,CanESM2,2040-2059,37.03,41.95,36.69,29.75,39.75,41.07,32.92,42.68,40.89,40.57,37.45,32.06,28.7,28.91,31.62,35.94,40.48,42.53,42.44
MARREE,17031,-29.65,138.06,r1i1p1,rcp26,CanESM2,2040-2059,30.77,38.95,30.58,21.5,32.05,36.83,24.71,40.71,38.72,36.51,31.12,24.1,21.01,20.79,22.71,28.58,31.06,36.51,37.37
MEEKATHARRA-AIRPORT,7045,-26.61,118.54,r1i1p1,rcp26,CanESM2,2040-2059,30.83,38.53,31.31,21.82,31.62,36.51,25.14,39.39,39.24,36.59,31.53,25.79,21.06,21.21,23.21,27.36,32.22,35.26,37.14
MELBOURNE-REGIONAL-OFFICE,86071,-37.81,144.97,r1i1p1,rcp26,CanESM2,2040-2059,21.87,27.59,22.51,15.95,21.42,26.05,17.69,28.36,28.92,26.54,22.64,18.35,15.82,15.49,16.53,18.79,21.18,24.3,25.55
MERREDIN,10092,-31.48,118.28,r1i1p1,rcp26,CanESM2,2040-2059,26.88,34.74,27.62,18.17,26.92,32.67,21.05,35.5,35.37,33.06,27.7,22.1,18.55,17.76,18.19,22.3,27.38,31.09,33.53
MILDURA-AIRPORT,76031,-34.24,142.09,r1i1p1,rcp26,CanESM2,2040-2059,25.54,33.45,25.51,17.3,25.9,31.22,19.86,34.62,33.94,30.87,25.87,19.79,16.8,16.56,18.53,22.25,25.23,30.21,31.8
MILES-CONSTANCE-STREET,42112,-26.66,150.18,r1i1p1,rcp26,CanESM2,2040-2059,28.96,34.13,28.94,22.09,30.69,32.77,25.15,35.19,33.57,32.65,28.95,25.22,21.49,21.59,23.2,28.13,31.26,32.7,33.61
MORAWA-AIRPORT,8296,-29.2,116.02,r1i1p1,rcp26,CanESM2,2040-2059,29.0,37.04,29.7,20.56,28.91,34.93,23.3,37.74,38.15,35.38,30.53,24.23,20.92,20.13,20.62,24.48,29.45,32.81,35.64
MOREE-AERO,53115,-29.49,149.85,r1i1p1,rcp26,CanESM2,2040-2059,27.94,34.47,28.02,20.05,29.24,32.68,23.21,35.55,34.23,32.18,28.09,23.81,19.88,19.52,20.75,25.78,29.51,32.43,33.52
MORUYA-HEADS-PILOT-STATION,69018,-35.91,150.15,r1i1p1,rcp26,CanESM2,2040-2059,21.97,24.83,22.7,18.36,22.0,24.21,19.71,25.4,25.44,24.79,22.93,20.36,18.59,17.91,18.58,20.85,21.99,23.15,23.67
MOUNT-GAMBIER-AERO,26021,-37.75,140.77,r1i1p1,rcp26,CanESM2,2040-2059,20.52,26.07,21.45,15.08,19.44,24.57,16.45,26.49,27.92,25.41,21.44,17.51,14.91,14.74,15.58,17.15,18.8,22.37,23.94
NHILL-AERODROME,78015,-36.31,141.65,r1i1p1,rcp26,CanESM2,2040-2059,23.76,31.61,24.32,16.01,23.09,29.39,18.14,32.33,32.97,29.55,24.41,18.99,15.6,15.49,16.94,19.37,22.43,27.47,29.59
NORMANTON-AIRPORT,29063,-17.69,141.07,r1i1p1,rcp26,CanESM2,2040-2059,35.02,36.42,35.03,31.49,37.15,36.48,33.57,36.58,35.41,35.78,35.76,33.54,30.78,31.08,32.62,35.66,37.71,38.07,37.22
NORTH-SHIELDS-PORT-LINCOLN-AWS,18192,-34.6,135.88,r1i1p1,rcp26,CanESM2,2040-2059,22.09,26.14,23.07,17.41,21.74,25.27,18.89,26.49,27.26,25.72,23.26,20.23,17.68,17.07,17.48,19.55,21.34,24.33,24.71
NOWRA-RAN-AIR-STATION-AWS,68072,-34.95,150.54,r1i1p1,rcp26,CanESM2,2040-2059,23.57,27.63,24.01,18.72,23.92,26.55,20.57,28.34,27.87,26.61,24.39,21.02,18.75,18.15,19.28,22.36,23.9,25.49,26.68
NURIOOTPA-VITICULTURAL,23373,-34.48,139.01,r1i1p1,rcp26,CanESM2,2040-2059,22.66,29.94,23.36,15.1,22.25,28.0,17.33,30.72,31.19,28.32,23.48,18.29,15.01,14.57,15.73,18.89,21.47,26.41,27.91
OODNADATTA-AIRPORT,17043,-27.56,135.45,r1i1p1,rcp26,CanESM2,2040-2059,31.98,38.85,30.65,21.93,32.93,36.81,25.34,40.92,38.53,36.43,31.0,24.53,21.09,21.06,23.63,29.69,32.17,36.93,37.62
ORBOST,84145,-37.69,148.47,r1i1p1,rcp26,CanESM2,2040-2059,21.19,25.89,21.82,16.17,20.91,24.71,17.69,26.9,27.09,25.07,21.97,18.43,16.21,15.75,16.56,18.76,20.43,23.54,23.96
PALMERVILLE,28004,-16.0,144.08,r1i1p1,rcp26,CanESM2,2040-2059,34.4,35.57,33.29,31.69,36.94,35.28,33.51,35.37,34.13,33.61,33.58,32.68,31.18,31.21,32.54,35.3,37.69,38.05,37.21
PERTH-AIRPORT,9021,-31.93,115.98,r1i1p1,rcp26,CanESM2,2040-2059,26.21,32.36,27.48,19.87,25.03,30.84,21.53,33.45,33.44,31.98,27.42,23.03,20.09,19.53,19.98,21.82,24.74,28.52,30.49
PORT-HEDLAND-AIRPORT,4032,-20.37,118.63,r1i1p1,rcp26,CanESM2,2040-2059,35.03,37.82,36.38,29.51,36.31,38.07,31.94,37.8,38.55,39.27,37.38,32.5,28.73,29.06,30.75,33.2,37.4,38.34,37.35
PORT-MACQUARIE-AIRPORT-AWS,60139,-31.43,152.87,r1i1p1,rcp26,CanESM2,2040-2059,24.96,28.57,25.27,20.71,25.35,27.47,22.48,29.12,29.17,27.46,25.47,22.88,20.68,20.2,21.25,24.45,25.39,26.2,27.51
RABBIT-FLAT,15666,-20.18,130.01,r1i1p1,rcp26,CanESM2,2040-2059,35.64,40.3,34.6,28.69,38.94,39.23,32.04,40.9,39.3,38.57,34.65,30.58,27.18,27.46,31.43,36.07,39.55,41.2,40.77
RICHMOND-POST-OFFICE,30045,-20.73,143.14,r1i1p1,rcp26,CanESM2,2040-2059,34.56,38.36,34.27,28.61,37.01,37.58,31.55,39.08,37.06,37.22,34.35,31.23,27.53,27.88,30.41,34.25,38.01,38.79,38.88
RICHMOND-RAAF,67105,-33.6,150.78,r1i1p1,rcp26,CanESM2,2040-2059,25.31,30.22,25.05,19.74,26.25,28.69,21.94,31.23,30.21,28.01,25.42,21.73,19.45,19.16,20.62,24.3,26.37,28.08,29.15
ROBE-COMPARISON,26026,-37.16,139.76,r1i1p1,rcp26,CanESM2,2040-2059,19.67,23.41,20.51,15.57,19.17,22.57,16.77,23.74,24.58,23.15,20.62,17.78,15.56,15.21,15.93,17.41,18.73,21.37,21.97
ROCKHAMPTON-AERO,39083,-23.38,150.48,r1i1p1,rcp26,CanESM2,2040-2059,30.09,33.68,30.17,25.32,31.19,32.65,27.5,34.08,33.51,32.52,30.03,27.94,24.92,24.87,26.16,29.46,31.67,32.43,33.44
RUTHERGLEN-RESEARCH,82039,-36.1,146.51,r1i1p1,rcp26,CanESM2,2040-2059,23.19,32.05,23.85,14.33,22.5,29.53,16.84,33.5,32.53,29.41,24.07,18.07,14.37,13.65,14.96,18.37,21.63,27.51,30.18
SCONE-AIRPORT-AWS,61363,-32.03,150.83,r1i1p1,rcp26,CanESM2,2040-2059,25.63,31.81,25.56,18.51,26.65,30.02,21.23,32.81,31.74,29.06,26.12,21.51,18.3,17.92,19.3,23.75,26.61,29.59,30.9
SNOWTOWN-RAYVILLE-PARK,21133,-33.77,138.22,r1i1p1,rcp26,CanESM2,2040-2059,25.15,32.96,25.75,16.91,24.96,30.83,19.44,33.95,34.08,30.79,25.92,20.53,16.97,16.37,17.38,20.95,24.44,29.49,30.88
ST-GEORGE-AIRPORT,43109,-28.05,148.59,r1i1p1,rcp26,CanESM2,2040-2059,29.32,35.57,29.12,21.49,31.11,33.85,24.79,36.89,34.85,33.34,29.17,24.85,20.96,20.95,22.55,27.96,31.48,33.89,34.89
SYDNEY-OBSERVATORY-HILL,66062,-33.86,151.21,r1i1p1,rcp26,CanESM2,2040-2059,24.13,27.69,24.63,19.68,24.52,26.77,21.48,28.21,28.16,26.89,25.05,21.94,19.64,19.15,20.27,23.29,24.61,25.65,26.73
TARCOOLA-AERO,16098,-30.71,134.58,r1i1p1,rcp26,CanESM2,2040-2059,28.6,35.93,28.64,20.28,29.58,34.0,23.22,37.72,36.87,34.03,28.82,23.07,19.81,19.9,21.13,26.49,28.92,33.34,33.54
TENNANT-CREEK-AIRPORT,15135,-19.64,134.18,r1i1p1,rcp26,CanESM2,2040-2059,33.87,38.61,33.02,27.26,36.57,37.41,30.33,39.14,38.26,36.91,33.02,29.14,25.7,26.47,29.62,33.78,37.3,38.64,38.43
THARGOMINDAH-AIRPORT,45025,-27.99,143.81,r1i1p1,rcp26,CanESM2,2040-2059,30.89,38.47,30.43,22.1,32.55,36.36,25.43,40.71,37.02,35.52,30.88,24.87,21.18,21.41,23.7,28.97,32.44,36.25,37.68
TIBOOBURRA-POST-OFFICE,46037,-29.43,142.01,r1i1p1,rcp26,CanESM2,2040-2059,29.48,37.59,28.95,20.46,30.93,35.34,23.62,39.92,36.55,34.48,29.65,22.7,19.81,19.67,21.89,27.37,30.27,35.16,36.31
TOWNSVILLE-AERO,32040,-19.25,146.77,r1i1p1,rcp26,CanESM2,2040-2059,31.01,33.51,31.49,27.66,31.39,32.92,29.1,34.01,33.14,33.0,31.51,29.96,27.46,27.27,28.24,29.93,31.76,32.49,33.3
VICTORIA-RIVER-DOWNS,14825,-16.4,131.01,r1i1p1,rcp26,CanESM2,2040-2059,36.76,38.63,36.11,32.44,39.8,38.48,35.04,38.93,37.83,37.89,36.17,34.27,31.08,31.8,34.37,37.88,40.63,40.9,39.11
WAGGA-WAGGA-AMO,72150,-35.16,147.46,r1i1p1,rcp26,CanESM2,2040-2059,23.84,32.63,24.33,14.81,23.58,30.15,17.53,34.17,32.82,29.69,24.62,18.69,14.81,14.1,15.52,19.25,22.83,28.67,30.96
WALGETT-AIRPORT-AWS,52088,-30.04,148.12,r1i1p1,rcp26,CanESM2,2040-2059,29.0,36.42,28.78,20.4,30.41,34.32,23.68,37.96,35.84,33.5,29.02,23.83,19.98,19.8,21.41,26.6,30.48,34.17,35.38
WANDERING,10917,-32.67,116.67,r1i1p1,rcp26,CanESM2,2040-2059,24.59,32.42,25.56,16.82,23.47,30.27,18.86,33.12,32.96,30.45,25.8,20.44,17.32,16.49,16.65,19.26,22.99,28.17,31.43
WEIPA-AERO,27045,-12.68,141.92,r1i1p1,rcp26,CanESM2,2040-2059,33.85,33.55,33.45,32.39,36.01,33.99,33.69,33.39,32.64,33.28,33.84,33.23,32.08,32.06,33.02,35.13,36.64,36.25,34.68
WILCANNIA-REID-ST,46043,-31.56,143.37,r1i1p1,rcp26,CanESM2,2040-2059,28.3,36.43,27.94,19.42,29.41,34.19,22.4,38.31,35.96,33.53,28.53,21.78,18.87,18.66,20.74,25.86,28.51,33.85,35.04
WILLIAMTOWN-RAAF,61078,-32.79,151.84,r1i1p1,rcp26,CanESM2,2040-2059,24.96,29.49,25.05,19.63,25.68,28.12,21.81,30.2,29.71,27.49,25.59,22.08,19.44,19.1,20.36,24.0,25.86,27.18,28.5
WILSONS-PROMONTORY-LIGHTHOUSE,85096,-39.13,146.42,r1i1p1,rcp26,CanESM2,2040-2059,17.84,21.56,18.76,13.91,17.12,20.62,15.05,22.31,22.81,21.18,18.94,16.16,14.2,13.73,13.8,15.54,16.87,18.95,19.64
WITTENOOM,5026,-22.24,118.34,r1i1p1,rcp26,CanESM2,2040-2059,35.14,41.07,34.78,27.2,37.47,39.8,30.47,41.65,40.42,39.58,35.26,29.51,26.14,26.6,28.85,33.5,38.22,40.69,41.24
WOOMERA-AERODROME,16001,-31.16,136.81,r1i1p1,rcp26,CanESM2,2040-2059,27.56,35.32,27.49,19.05,28.4,33.19,21.93,36.72,35.89,33.1,27.62,21.77,18.56,18.5,20.09,25.11,27.56,32.54,33.29
WYALONG-POST-OFFICE,73054,-33.93,147.24,r1i1p1,rcp26,CanESM2,2040-2059,25.22,33.76,25.5,16.07,25.53,31.36,19.06,35.38,33.77,30.67,25.88,19.94,15.96,15.34,16.9,21.18,25.0,30.4,32.18
YAMBA-PILOT-STATION,58012,-29.43,153.36,r1i1p1,rcp26,CanESM2,2040-2059,25.29,28.4,25.84,21.51,25.44,27.53,23.06,28.63,29.11,27.78,26.04,23.7,21.45,21.2,21.88,24.42,25.73,26.18,27.42
ADELAIDE-KENT-TOWN,23090,-34.92,138.62,r1i1p1,rcp26,GFDL-ESM2M,2040-2059,22.82,28.77,23.64,16.58,22.3,27.1,18.54,29.73,29.23,27.16,24.01,19.75,16.59,16.06,17.1,19.43,22.32,25.15,27.35
ALBANY-AIRPORT-COMPARISON,9741,-34.94,117.8,r1i1p1,rcp26,GFDL-ESM2M,2040-2059,20.36,23.89,22.08,16.45,18.96,23.22,17.46,24.48,24.48,24.19,22.79,19.26,16.99,15.92,16.43,17.62,18.54,20.72,22.89
ALICE-SPRINGS-AIRPORT,15590,-23.8,133.89,r1i1p1,rcp26,GFDL-ESM2M,2040-2059,31.12,38.55,30.99,22.44,32.5,36.41,25.83,40.24,37.78,36.46,31.21,25.29,21.47,20.8,25.05,30.18,32.18,35.13,37.62
AMBERLEY-AMO,40004,-27.63,152.71,r1i1p1,rcp26,GFDL-ESM2M,2040-2059,28.03,31.98,27.83,23.23,29.12,30.7,25.37,32.66,31.47,30.17,27.99,25.32,23.03,22.36,24.3,27.7,29.49,30.15,31.75
BARCALDINE-POST-OFFICE,36007,-23.55,145.29,r1i1p1,rcp26,GFDL-ESM2M,2040-2059,32.36,37.76,32.04,25.79,33.89,36.05,28.7,39.09,37.39,35.49,31.97,28.68,25.22,24.48,27.68,31.65,34.48,35.54,36.71
BATHURST-AGRICULTURAL-STATION,63005,-33.43,149.56,r1i1p1,rcp26,GFDL-ESM2M,2040-2059,21.2,28.74,21.72,13.48,20.81,26.35,16.02,30.11,28.53,25.68,22.23,17.26,13.59,12.25,14.61,17.21,21.23,24.0,27.64
BIRDSVILLE-AIRPORT,38026,-25.9,139.35,r1i1p1,rcp26,GFDL-ESM2M,2040-2059,32.78,40.89,32.47,24.08,33.69,38.32,27.25,42.32,40.97,38.04,32.44,26.92,23.21,22.66,26.37,31.08,33.23,36.76,39.34
BOULIA-AIRPORT,38003,-22.91,139.9,r1i1p1,rcp26,GFDL-ESM2M,2040-2059,34.46,41.23,34.25,26.77,35.56,39.13,29.78,42.52,41.24,39.19,34.11,29.46,25.67,25.39,29.26,33.06,35.85,37.78,40.0
BOURKE-AIRPORT-AWS,48245,-30.04,145.95,r1i1p1,rcp26,GFDL-ESM2M,2040-2059,29.65,37.73,29.47,20.72,30.67,35.15,24.15,39.36,37.37,34.18,30.02,24.21,20.48,19.08,22.61,27.58,30.96,33.48,36.46
BRIDGETOWN-COMPARISON,9510,-33.96,116.14,r1i1p1,rcp26,GFDL-ESM2M,2040-2059,23.03,29.23,24.33,16.98,21.49,27.54,18.46,30.12,29.8,28.05,24.73,20.2,17.53,16.29,17.1,18.74,20.87,24.86,28.04
BRISBANE-AERO,40842,-27.39,153.12,r1i1p1,rcp26,GFDL-ESM2M,2040-2059,26.04,29.53,26.32,22.04,26.3,28.42,23.66,29.99,29.56,28.28,26.35,24.32,22.15,21.29,22.69,25.01,26.5,27.37,29.0
BROOME-AIRPORT,3003,-17.95,122.23,r1i1p1,rcp26,GFDL-ESM2M,2040-2059,33.06,33.77,34.57,30.7,33.19,34.35,31.76,34.11,33.17,34.94,35.5,33.26,30.74,30.01,31.36,32.05,33.15,34.36,34.09
BUNDABERG-AERO,39128,-24.91,152.32,r1i1p1,rcp26,GFDL-ESM2M,2040-2059,27.55,30.8,27.8,23.77,27.82,29.81,25.28,31.3,30.92,29.76,27.78,25.88,23.77,22.97,24.57,26.65,27.82,28.99,30.2
BURKETOWN-AIRPORT,29077,-17.75,139.54,r1i1p1,rcp26,GFDL-ESM2M,2040-2059,34.52,36.17,35.24,30.75,35.93,36.23,32.82,36.55,34.99,36.24,35.48,34.01,30.77,29.68,31.81,33.99,36.66,37.14,36.92
BUTLERS-GORGE,96003,-42.28,146.28,r1i1p1,rcp26,GFDL-ESM2M,2040-2059,13.66,18.44,14.17,9.07,12.91,17.18,10.12,19.08,19.13,16.99,14.48,11.03,9.42,8.32,9.48,9.81,12.67,16.24,17.29
CABRAMURRA-SMHEA-AWS,72161,-35.94,148.38,r1i1p1,rcp26,GFDL-ESM2M,2040-2059,12.46,19.89,13.67,4.73,11.51,17.73,7.17,21.03,20.6,18.04,13.74,9.23,5.32,3.73,5.15,7.82,11.75,14.98,18.17
CAIRNS-AERO,31011,-16.87,145.75,r1i1p1,rcp26,GFDL-ESM2M,2040-2059,29.77,32.28,29.96,26.72,30.13,31.59,27.95,32.51,32.11,31.6,29.81,28.46,26.82,26.29,27.05,28.8,30.3,31.28,32.16
CAMOOWEAL-TOWNSHIP,37010,-19.92,138.12,r1i1p1,rcp26,GFDL-ESM2M,2040-2059,35.67,40.28,36.0,29.49,37.49,39.24,32.35,41.01,39.74,38.99,36.31,32.7,28.7,28.0,31.76,35.01,38.36,39.31,40.05
CANBERRA-AIRPORT,70351,-35.31,149.2,r1i1p1,rcp26,GFDL-ESM2M,2040-2059,21.2,28.53,21.81,13.63,20.81,26.35,16.04,30.12,28.67,25.24,23.11,17.09,13.58,12.91,14.39,17.19,21.08,24.15,26.9
CAPE-BORDA,22823,-35.75,136.6,r1i1p1,rcp26,GFDL-ESM2M,2040-2059,18.75,22.79,19.68,14.89,17.61,21.66,15.81,23.59,23.25,21.86,20.01,17.16,15.21,14.72,14.75,15.67,17.35,19.82,21.59
CAPE-BRUNY-LIGHTHOUSE,94010,-43.49,147.15,r1i1p1,rcp26,GFDL-ESM2M,2040-2059,15.8,18.73,16.56,12.74,15.13,17.98,13.61,19.16,19.37,18.14,16.97,14.57,12.68,12.51,13.03,13.96,14.9,16.53,17.73
CAPE-LEEUWIN,9518,-34.37,115.14,r1i1p1,rcp26,GFDL-ESM2M,2040-2059,20.13,22.75,21.74,17.24,18.76,22.34,17.91,23.07,23.18,23.15,22.23,19.83,17.98,16.82,16.91,17.5,18.4,20.36,22.08
CAPE-MORETON-LIGHTHOUSE,40043,-27.03,153.47,r1i1p1,rcp26,GFDL-ESM2M,2040-2059,24.52,27.98,24.98,20.79,24.51,26.91,22.19,28.27,28.26,27.0,24.99,23.1,20.94,20.18,21.24,23.05,24.61,25.86,27.41
CAPE-OTWAY-LIGHTHOUSE,90015,-38.86,143.51,r1i1p1,rcp26,GFDL-ESM2M,2040-2059,16.97,20.1,17.94,13.56,16.28,19.35,14.58,20.6,20.63,19.74,18.45,15.79,13.68,13.14,13.91,14.77,16.17,17.83,19.08
CARNARVON-AIRPORT,6011,-24.89,113.67,r1i1p1,rcp26,GFDL-ESM2M,2040-2059,28.42,32.04,30.36,24.22,27.06,31.43,25.41,31.9,33.88,32.54,31.05,27.47,24.79,23.44,24.43,25.34,26.99,28.84,30.36
CEDUNA-AMO,18012,-32.13,133.7,r1i1p1,rcp26,GFDL-ESM2M,2040-2059,24.42,28.68,25.26,19.2,24.53,27.73,21.09,29.58,28.55,27.84,25.89,22.05,19.0,18.53,20.07,22.53,24.38,26.67,27.92
CHARLEVILLE-AERO,44021,-26.41,146.26,r1i1p1,rcp26,GFDL-ESM2M,2040-2059,30.64,36.96,30.66,22.91,32.06,34.94,26.36,38.62,36.26,35.19,29.48,27.29,21.58,21.27,25.86,29.56,32.61,34.02,35.92
CHARTERS-TOWERS-AIRPORT,34084,-20.05,146.27,r1i1p1,rcp26,GFDL-ESM2M,2040-2059,31.27,35.2,30.82,26.38,32.71,33.93,28.61,35.78,34.76,33.14,30.73,28.58,26.05,25.39,27.7,30.64,33.31,34.19,35.01
COBAR-MO,48027,-31.48,145.83,r1i1p1,rcp26,GFDL-ESM2M,2040-2059,27.18,35.37,27.15,18.33,27.87,32.75,21.6,36.75,35.29,31.88,27.6,21.97,18.23,16.65,20.09,24.64,28.03,30.93,34.08
COFFS-HARBOUR-MO,59040,-30.31,153.12,r1i1p1,rcp26,GFDL-ESM2M,2040-2059,24.2,27.64,24.34,20.38,24.43,26.47,21.92,28.22,27.6,26.1,24.72,22.2,20.47,19.48,21.21,23.11,25.06,25.11,27.12
CUNDERDIN-AIRFIELD,10286,-31.62,117.22,r1i1p1,rcp26,GFDL-ESM2M,2040-2059,26.1,33.89,26.94,17.77,25.72,31.75,20.4,35.19,33.33,31.26,27.59,21.96,18.71,16.82,17.78,21.06,26.08,30.01,33.35
DALWALLINU-COMPARISON,8039,-30.28,116.66,r1i1p1,rcp26,GFDL-ESM2M,2040-2059,27.08,35.06,27.89,18.74,26.58,32.78,21.35,36.37,34.81,32.35,28.61,22.7,19.39,17.64,19.2,22.29,26.89,30.56,34.19
DARWIN-AIRPORT,14015,-12.42,130.89,r1i1p1,rcp26,GFDL-ESM2M,2040-2059,32.91,32.7,33.53,31.69,33.7,33.13,32.67,32.7,32.09,32.77,33.82,33.98,32.22,31.08,31.75,33.06,33.92,34.13,33.37
DENILIQUIN-AIRPORT-AWS,74258,-35.56,144.95,r1i1p1,rcp26,GFDL-ESM2M,2040-2059,24.0,32.12,24.31,15.64,23.91,29.72,18.27,33.2,32.35,29.36,24.62,18.95,15.33,14.65,16.96,19.8,23.93,27.99,30.84
DUBBO-AIRPORT-AWS,65070,-32.22,148.58,r1i1p1,rcp26,GFDL-ESM2M,2040-2059,25.49,33.28,25.85,17.14,25.7,30.87,20.11,34.73,33.02,30.13,26.24,21.19,17.47,15.64,18.32,21.64,26.38,29.06,32.08
EAST-SALE-AIRPORT,85072,-38.12,147.13,r1i1p1,rcp26,GFDL-ESM2M,2040-2059,20.42,25.43,21.16,15.26,19.8,24.01,16.82,26.24,25.87,24.37,21.47,17.64,15.07,14.53,16.19,17.68,19.83,21.91,24.26
ESPERANCE,9789,-33.83,121.89,r1i1p1,rcp26,GFDL-ESM2M,2040-2059,22.04,25.96,23.38,17.78,21.0,25.05,19.0,27.32,26.24,25.43,24.01,20.69,18.27,16.93,18.14,19.38,20.61,23.01,24.48
EUCLA,11003,-31.68,128.88,r1i1p1,rcp26,GFDL-ESM2M,2040-2059,23.31,26.11,23.98,19.4,23.78,25.55,21.09,27.11,25.44,25.3,24.82,21.88,19.28,18.6,20.33,22.58,23.87,24.88,25.79
FORREST,11052,-30.85,128.11,r1i1p1,rcp26,GFDL-ESM2M,2040-2059,26.25,32.24,26.22,19.71,26.82,30.35,22.15,34.11,31.27,28.93,27.01,22.73,19.27,18.77,21.09,24.64,26.36,29.44,31.35
GABO-ISLAND-LIGHTHOUSE,84016,-37.57,149.92,r1i1p1,rcp26,GFDL-ESM2M,2040-2059,19.1,22.14,20.21,15.8,18.23,21.4,16.8,22.9,22.59,22.02,20.65,17.97,16.11,15.24,16.06,16.93,18.47,19.29,21.0
GAYNDAH-AIRPORT,39066,-25.62,151.62,r1i1p1,rcp26,GFDL-ESM2M,2040-2059,29.62,33.99,29.38,24.38,30.74,32.54,26.7,34.83,33.51,31.91,29.36,26.87,24.2,23.28,25.67,29.16,30.99,32.06,33.57
GEORGETOWN-AIRPORT,30124,-18.3,143.53,r1i1p1,rcp26,GFDL-ESM2M,2040-2059,34.19,36.67,33.93,29.98,36.23,36.2,32.2,36.95,35.54,35.73,33.95,32.09,29.63,29.19,31.12,34.38,36.79,37.52,37.43
GERALDTON-AIRPORT-COMPARISON,8051,-28.8,114.7,r1i1p1,rcp26,GFDL-ESM2M,2040-2059,26.76,31.97,28.71,20.92,25.36,30.84,22.63,32.17,33.45,31.63,29.41,25.07,21.96,20.01,20.8,22.69,25.24,28.16,30.49
GILES-METEOROLOGICAL-OFFICE,13017,-25.03,128.3,r1i1p1,rcp26,GFDL-ESM2M,2040-2059,31.18,38.55,31.19,22.47,32.52,36.5,25.87,39.77,37.87,36.3,31.6,25.66,22.02,20.9,24.5,29.76,32.38,35.42,37.98
GROVE-RESEARCH-STATION,94220,-42.99,147.07,r1i1p1,rcp26,GFDL-ESM2M,2040-2059,18.1,22.44,18.66,13.68,17.57,21.23,14.96,23.07,23.14,21.32,18.97,15.7,13.36,13.26,14.43,15.6,17.41,19.71,21.28
GUNNEDAH-RESOURCE-CENTRE,55024,-31.03,150.27,r1i1p1,rcp26,GFDL-ESM2M,2040-2059,25.88,32.77,26.16,18.27,26.34,30.57,21.18,34.26,32.26,29.91,26.63,21.94,18.28,16.71,19.81,23.04,27.31,28.67,31.75
HALLS-CREEK-AIRPORT,2012,-18.23,127.66,r1i1p1,rcp26,GFDL-ESM2M,2040-2059,35.35,38.29,35.28,29.52,38.29,38.15,32.56,38.56,36.82,37.69,35.87,32.29,28.93,27.9,31.73,35.98,38.54,40.36,39.58
HOBART-ELLERSLIE-ROAD,94029,-42.89,147.33,r1i1p1,rcp26,GFDL-ESM2M,2040-2059,18.41,22.4,19.05,14.05,18.07,21.34,15.46,22.92,22.92,21.33,19.53,16.3,13.62,13.6,14.91,16.29,18.02,19.91,21.5
HORN-ISLAND,27058,-10.58,142.29,r1i1p1,rcp26,GFDL-ESM2M,2040-2059,30.53,31.45,30.59,28.92,31.23,31.44,29.66,31.33,30.97,31.03,30.75,30.01,29.42,28.65,28.7,29.99,31.24,32.46,32.1
INVERELL-RAGLAN-ST,56242,-29.78,151.11,r1i1p1,rcp26,GFDL-ESM2M,2040-2059,24.75,30.67,25.27,18.12,24.96,28.76,20.74,32.04,30.16,28.52,25.56,21.73,18.27,16.73,19.35,22.62,25.75,26.51,29.76
JERVIS-BAY-POINT-PERPENDICULAR-AWS,68151,-35.09,150.8,r1i1p1,rcp26,GFDL-ESM2M,2040-2059,21.08,24.69,21.84,17.16,20.7,23.64,18.52,25.27,24.98,23.87,22.31,19.36,17.37,16.32,17.78,19.13,21.18,21.78,23.8
KALGOORLIE-BOULDER-AIRPORT,12038,-30.78,121.45,r1i1p1,rcp26,GFDL-ESM2M,2040-2059,26.13,33.23,26.09,18.61,26.58,31.03,21.23,35.25,31.75,29.98,26.82,21.48,18.52,17.45,19.86,23.57,26.49,29.68,32.76
KALUMBURU,1019,-14.3,126.65,r1i1p1,rcp26,GFDL-ESM2M,2040-2059,35.01,35.02,35.16,32.75,36.99,35.57,34.44,35.25,33.79,34.95,35.56,34.97,32.53,32.2,33.52,35.94,37.23,37.8,36.08
KATANNING-COMPARISON,10579,-33.69,117.56,r1i1p1,rcp26,GFDL-ESM2M,2040-2059,22.94,29.84,24.03,15.93,21.87,27.97,17.86,30.91,29.79,27.94,24.53,19.63,16.54,15.18,16.05,18.19,21.57,25.86,29.04
KERANG,80023,-35.72,143.92,r1i1p1,rcp26,GFDL-ESM2M,2040-2059,23.86,31.58,24.17,15.92,23.77,29.31,18.42,32.57,31.89,29.09,24.49,18.95,15.5,14.96,17.3,19.91,23.89,27.51,30.33
KYANCUTTA,18044,-33.13,135.56,r1i1p1,rcp26,GFDL-ESM2M,2040-2059,25.86,32.42,26.6,18.67,25.78,30.62,21.1,33.51,32.54,30.64,27.05,22.11,18.57,18.08,19.35,22.64,25.89,28.8,31.2
LARAPUNA-EDDYSTONE-POINT,92045,-40.99,148.35,r1i1p1,rcp26,GFDL-ESM2M,2040-2059,18.29,21.6,19.52,14.79,17.31,20.83,15.73,22.06,21.95,21.54,19.7,17.1,14.9,14.46,15.03,15.75,17.23,18.94,20.88
LAUNCESTON-AIRPORT,91311,-41.55,147.21,r1i1p1,rcp26,GFDL-ESM2M,2040-2059,18.45,23.81,19.3,12.95,17.68,22.45,14.43,24.4,24.48,23.0,19.54,15.35,12.75,12.42,13.67,14.91,17.47,20.67,22.77
LAVERTON-RAAF,87031,-37.86,144.76,r1i1p1,rcp26,GFDL-ESM2M,2040-2059,20.49,25.58,21.16,15.27,19.91,24.18,16.8,26.19,26.05,24.37,21.58,17.55,15.1,14.66,16.07,17.61,19.8,22.31,24.54
LEARMONTH-AIRPORT,5007,-22.24,114.1,r1i1p1,rcp26,GFDL-ESM2M,2040-2059,32.63,37.87,33.62,26.29,32.7,36.71,28.53,38.65,37.89,37.26,34.32,29.27,26.07,25.41,27.39,29.95,33.11,35.03,37.2
LONGREACH-AERO,36031,-23.44,144.28,r1i1p1,rcp26,GFDL-ESM2M,2040-2059,34.01,39.82,34.02,26.73,35.5,37.97,30.07,41.24,39.79,38.0,33.23,30.81,25.02,25.93,29.23,32.47,36.97,37.07,38.35
LOW-HEAD,91293,-41.06,146.79,r1i1p1,rcp26,GFDL-ESM2M,2040-2059,16.92,20.22,18.31,13.47,15.65,19.55,14.27,20.57,20.95,20.28,18.83,15.82,13.78,13.04,13.59,13.91,15.51,17.54,19.26
MACKAY-M.O,33119,-21.12,149.22,r1i1p1,rcp26,GFDL-ESM2M,2040-2059,27.3,30.98,27.12,22.77,28.32,29.86,24.73,31.13,30.96,29.37,26.91,25.08,22.68,21.97,23.67,26.37,28.61,29.98,30.83
MARBLE-BAR,4106,-21.18,119.75,r1i1p1,rcp26,GFDL-ESM2M,2040-2059,36.48,41.27,36.3,29.78,38.58,40.38,32.51,42.0,38.94,39.54,37.33,32.02,29.09,28.66,31.59,35.04,38.85,41.58,43.04
MARREE,17031,-29.65,138.06,r1i1p1,rcp26,GFDL-ESM2M,2040-2059,30.12,38.21,30.09,21.28,30.92,35.84,24.4,39.3,37.88,35.13,30.7,24.42,20.74,19.95,23.15,27.74,30.41,34.6,37.38
MEEKATHARRA-AIRPORT,7045,-26.61,118.54,r1i1p1,rcp26,GFDL-ESM2M,2040-2059,30.4,38.46,30.33,21.75,31.02,35.95,24.84,39.12,37.64,34.72,30.8,25.48,21.02,20.33,23.88,27.17,31.16,34.73,38.79
MELBOURNE-REGIONAL-OFFICE,86071,-37.81,144.97,r1i1p1,rcp26,GFDL-ESM2M,2040-2059,21.03,26.37,21.66,15.55,20.53,24.87,17.19,26.92,26.92,25.08,22.01,17.9,15.27,14.87,16.52,18.14,20.45,23.0,25.31
MERREDIN,10092,-31.48,118.28,r1i1p1,rcp26,GFDL-ESM2M,2040-2059,26.15,33.89,26.95,17.95,25.76,31.69,20.58,35.3,33.18,31.26,27.47,22.13,18.58,16.89,18.38,21.55,25.97,29.78,33.35
MILDURA-AIRPORT,76031,-34.24,142.09,r1i1p1,rcp26,GFDL-ESM2M,2040-2059,24.92,32.37,25.05,17.08,25.2,30.11,19.73,33.3,32.73,29.88,25.33,19.94,16.71,16.12,18.41,21.8,25.44,28.35,31.09
MILES-CONSTANCE-STREET,42112,-26.66,150.18,r1i1p1,rcp26,GFDL-ESM2M,2040-2059,28.8,34.34,28.69,22.07,30.11,32.57,25.03,35.53,33.53,31.98,28.88,25.22,21.76,20.75,23.71,28.08,30.64,31.62,33.94
MORAWA-AIRPORT,8296,-29.2,116.02,r1i1p1,rcp26,GFDL-ESM2M,2040-2059,28.46,36.61,29.06,20.31,28.11,34.24,22.91,37.75,36.72,33.61,30.26,24.24,20.75,19.18,20.99,24.01,28.32,32.0,35.71
MOREE-AERO,53115,-29.49,149.85,r1i1p1,rcp26,GFDL-ESM2M,2040-2059,27.65,34.29,27.93,19.93,28.49,32.19,23.13,35.6,33.74,31.56,28.28,23.95,19.99,18.52,21.29,25.64,29.37,30.46,33.42
MORUYA-HEADS-PILOT-STATION,69018,-35.91,150.15,r1i1p1,rcp26,GFDL-ESM2M,2040-2059,21.23,24.15,22.08,17.83,20.84,23.41,19.02,24.84,24.5,24.01,22.43,19.79,17.97,17.05,18.46,19.49,21.36,21.68,23.14
MOUNT-GAMBIER-AERO,26021,-37.75,140.77,r1i1p1,rcp26,GFDL-ESM2M,2040-2059,19.48,24.52,20.53,14.41,18.44,23.21,15.74,25.04,25.54,23.71,20.9,16.97,14.34,14.03,14.85,16.15,18.1,21.06,23.13
NHILL-AERODROME,78015,-36.31,141.65,r1i1p1,rcp26,GFDL-ESM2M,2040-2059,22.87,30.14,23.51,15.57,22.25,28.05,17.7,30.9,30.8,28.03,23.85,18.66,15.24,14.97,16.5,18.6,22.2,25.96,28.78
NORMANTON-AIRPORT,29063,-17.69,141.07,r1i1p1,rcp26,GFDL-ESM2M,2040-2059,34.86,36.4,35.36,31.11,36.57,36.47,33.25,37.01,35.01,36.32,35.8,33.96,30.95,30.19,32.18,35.13,37.11,37.47,37.14
NORTH-SHIELDS-PORT-LINCOLN-AWS,18192,-34.6,135.88,r1i1p1,rcp26,GFDL-ESM2M,2040-2059,21.22,24.96,22.33,16.9,20.67,24.1,18.32,25.65,25.17,24.12,22.94,19.93,17.14,16.58,16.98,18.59,20.7,22.72,24.09
NOWRA-RAN-AIR-STATION-AWS,68072,-34.95,150.54,r1i1p1,rcp26,GFDL-ESM2M,2040-2059,22.82,27.0,23.37,18.17,22.75,25.76,19.87,27.77,27.07,25.78,23.9,20.44,18.19,17.24,19.07,20.97,23.3,23.98,26.15
NURIOOTPA-VITICULTURAL,23373,-34.48,139.01,r1i1p1,rcp26,GFDL-ESM2M,2040-2059,21.7,28.43,22.51,14.64,21.21,26.53,16.86,29.41,28.81,26.57,22.89,18.08,14.55,14.1,15.27,17.92,21.26,24.44,27.06
OODNADATTA-AIRPORT,17043,-27.56,135.45,r1i1p1,rcp26,GFDL-ESM2M,2040-2059,31.46,38.6,30.25,21.67,31.53,36.08,24.94,40.0,37.9,35.37,30.57,24.81,20.91,20.03,24.06,28.66,31.09,34.85,38.28
ORBOST,84145,-37.69,148.47,r1i1p1,rcp26,GFDL-ESM2M,2040-2059,20.5,25.19,21.17,15.69,19.96,23.89,17.11,26.36,25.67,24.2,21.4,17.91,15.52,14.96,16.61,17.79,19.9,22.19,23.81
PALMERVILLE,28004,-16.0,144.08,r1i1p1,rcp26,GFDL-ESM2M,2040-2059,33.7,35.25,32.93,30.67,35.89,34.9,32.52,35.23,33.91,33.56,33.05,32.18,30.71,29.85,31.32,34.25,36.42,37.24,36.61
PERTH-AIRPORT,9021,-31.93,115.98,r1i1p1,rcp26,GFDL-ESM2M,2040-2059,25.57,31.53,26.85,19.29,24.51,30.06,21.03,32.99,31.84,30.94,27.06,22.56,19.75,18.61,19.5,21.28,24.46,27.78,30.04
PORT-HEDLAND-AIRPORT,4032,-20.37,118.63,r1i1p1,rcp26,GFDL-ESM2M,2040-2059,34.51,37.07,36.02,29.68,35.18,37.35,31.62,37.33,36.77,38.19,37.33,32.54,29.16,29.05,30.81,32.37,35.77,37.41,37.36
PORT-MACQUARIE-AIRPORT-AWS,60139,-31.43,152.87,r1i1p1,rcp26,GFDL-ESM2M,2040-2059,24.25,28.03,24.41,20.24,24.39,26.71,21.82,28.73,28.08,26.31,24.8,22.11,20.29,19.13,21.32,23.14,24.94,25.09,27.35
RABBIT-FLAT,15666,-20.18,130.01,r1i1p1,rcp26,GFDL-ESM2M,2040-2059,35.45,40.19,35.16,28.44,37.99,39.31,31.59,40.74,38.59,38.82,35.84,30.82,27.9,26.44,30.98,35.53,37.87,40.57,41.34
RICHMOND-POST-OFFICE,30045,-20.73,143.14,r1i1p1,rcp26,GFDL-ESM2M,2040-2059,34.48,39.0,34.23,28.45,36.27,37.71,31.27,39.95,38.22,37.19,34.26,31.23,27.75,27.15,30.45,33.92,37.12,37.78,38.77
RICHMOND-RAAF,67105,-33.6,150.78,r1i1p1,rcp26,GFDL-ESM2M,2040-2059,24.63,29.73,24.48,19.17,25.14,27.97,21.29,30.76,29.41,27.18,24.99,21.28,19.07,18.07,20.37,22.98,25.95,26.49,28.94
ROBE-COMPARISON,26026,-37.16,139.76,r1i1p1,rcp26,GFDL-ESM2M,2040-2059,18.66,21.96,19.62,14.93,18.09,21.24,16.07,22.44,22.4,21.54,20.03,17.29,15.02,14.57,15.21,16.37,17.98,19.93,21.13
ROCKHAMPTON-AERO,39083,-23.38,150.48,r1i1p1,rcp26,GFDL-ESM2M,2040-2059,29.63,33.14,29.56,25.16,30.67,32.09,27.16,33.62,32.99,31.74,29.5,27.43,24.89,24.32,26.27,29.02,31.06,31.93,32.82
RUTHERGLEN-RESEARCH,82039,-36.1,146.51,r1i1p1,rcp26,GFDL-ESM2M,2040-2059,22.61,31.32,23.3,14.1,21.71,28.69,16.53,32.56,31.53,28.46,23.68,17.76,13.95,13.04,15.3,17.79,21.31,26.01,29.91
SCONE-AIRPORT-AWS,61363,-32.03,150.83,r1i1p1,rcp26,GFDL-ESM2M,2040-2059,25.0,31.4,25.0,18.03,25.56,29.31,20.67,32.61,30.81,28.18,25.73,21.08,17.96,16.6,19.53,22.4,26.45,27.84,30.79
SNOWTOWN-RAYVILLE-PARK,21133,-33.77,138.22,r1i1p1,rcp26,GFDL-ESM2M,2040-2059,24.23,31.59,24.95,16.45,23.9,29.43,19.01,32.73,31.89,29.04,25.38,20.43,16.48,15.84,17.05,20.04,24.23,27.45,30.18
ST-GEORGE-AIRPORT,43109,-28.05,148.59,r1i1p1,rcp26,GFDL-ESM2M,2040-2059,29.37,36.01,29.2,21.59,30.69,33.8,24.95,37.36,35.2,32.93,29.53,25.15,21.24,20.28,23.26,28.43,31.33,32.32,35.37
SYDNEY-OBSERVATORY-HILL,66062,-33.86,151.21,r1i1p1,rcp26,GFDL-ESM2M,2040-2059,23.37,27.14,23.93,19.01,23.39,25.99,20.74,27.71,27.3,25.96,24.47,21.36,19.17,18.02,19.83,21.95,24.1,24.13,26.43
TARCOOLA-AERO,16098,-30.71,134.58,r1i1p1,rcp26,GFDL-ESM2M,2040-2059,27.8,35.2,27.87,19.92,28.25,32.91,22.71,36.91,35.04,32.21,28.24,23.15,19.3,19.13,21.32,25.26,28.09,31.42,34.01
TENNANT-CREEK-AIRPORT,15135,-19.64,134.18,r1i1p1,rcp26,GFDL-ESM2M,2040-2059,33.85,38.95,33.66,27.16,35.63,37.7,30.0,39.83,38.14,37.39,34.14,29.45,26.47,25.42,29.59,33.16,35.93,37.79,38.89
THARGOMINDAH-AIRPORT,45025,-27.99,143.81,r1i1p1,rcp26,GFDL-ESM2M,2040-2059,30.86,38.81,30.64,22.09,31.89,36.26,25.47,40.38,38.47,35.67,30.86,25.38,21.41,20.67,24.19,29.25,31.92,34.49,37.59
TIBOOBURRA-POST-OFFICE,46037,-29.43,142.01,r1i1p1,rcp26,GFDL-ESM2M,2040-2059,29.28,37.58,28.93,20.49,30.13,34.92,23.64,39.05,37.37,34.1,29.27,23.43,19.94,19.09,22.42,27.12,29.85,33.42,36.34
TOWNSVILLE-AERO,32040,-19.25,146.77,r1i1p1,rcp26,GFDL-ESM2M,2040-2059,30.23,32.79,30.78,26.94,30.44,32.2,28.28,32.99,32.97,32.49,30.74,29.12,27.13,26.3,27.4,29.04,30.66,31.61,32.31
VICTORIA-RIVER-DOWNS,14825,-16.4,131.01,r1i1p1,rcp26,GFDL-ESM2M,2040-2059,36.23,37.58,36.32,31.86,39.09,37.83,34.63,37.5,36.56,37.27,36.77,34.92,31.46,30.46,33.67,37.32,39.75,40.19,38.65
WAGGA-WAGGA-AMO,72150,-35.16,147.46,r1i1p1,rcp26,GFDL-ESM2M,2040-2059,23.34,32.05,24.01,14.58,22.69,29.47,17.21,33.48,32.17,29.03,24.48,18.51,14.45,13.4,15.89,18.31,22.67,27.09,30.56
WALGETT-AIRPORT-AWS,52088,-30.04,148.12,r1i1p1,rcp26,GFDL-ESM2M,2040-2059,29.02,36.57,29.04,20.51,29.98,34.1,23.94,38.15,36.03,33.19,29.45,24.48,20.31,19.06,22.17,26.85,30.77,32.32,35.45
WANDERING,10917,-32.67,116.67,r1i1p1,rcp26,GFDL-ESM2M,2040-2059,23.87,31.52,24.89,16.29,22.7,29.4,18.29,32.64,31.28,29.27,25.39,20.01,16.97,15.6,16.28,18.61,22.23,27.26,30.89
WEIPA-AERO,27045,-12.68,141.92,r1i1p1,rcp26,GFDL-ESM2M,2040-2059,33.01,32.87,32.57,31.48,35.08,33.22,32.77,32.72,31.92,32.51,32.76,32.45,31.53,31.07,31.84,34.16,35.55,35.52,34.04
WILCANNIA-REID-ST,46043,-31.56,143.37,r1i1p1,rcp26,GFDL-ESM2M,2040-2059,27.97,36.01,27.84,19.33,28.71,33.49,22.45,36.97,36.26,33.07,28.19,22.26,18.94,18.03,21.01,25.84,28.61,31.69,34.82
WILLIAMTOWN-RAAF,61078,-32.79,151.84,r1i1p1,rcp26,GFDL-ESM2M,2040-2059,24.16,28.94,24.24,18.92,24.56,27.33,21.0,29.77,28.66,26.48,24.9,21.34,18.92,17.8,20.06,22.49,25.4,25.79,28.35
WILSONS-PROMONTORY-LIGHTHOUSE,85096,-39.13,146.42,r1i1p1,rcp26,GFDL-ESM2M,2040-2059,16.87,20.11,17.96,13.39,16.0,19.31,14.42,20.66,20.69,19.79,18.32,15.76,13.65,12.99,13.52,14.59,15.99,17.44,19.06
WITTENOOM,5026,-22.24,118.34,r1i1p1,rcp26,GFDL-ESM2M,2040-2059,34.59,40.46,34.18,27.39,36.29,39.02,30.15,41.25,38.08,38.05,35.01,29.47,26.46,26.4,29.31,32.79,36.49,39.6,42.16
WOOMERA-AERODROME,16001,-31.16,136.81,r1i1p1,rcp26,GFDL-ESM2M,2040-2059,26.84,34.48,26.9,18.67,27.33,32.09,21.58,35.59,34.29,31.51,27.17,22.03,18.05,17.71,20.25,24.12,27.35,30.52,33.5
WYALONG-POST-OFFICE,73054,-33.93,147.24,r1i1p1,rcp26,GFDL-ESM2M,2040-2059,24.86,33.35,25.37,15.94,24.75,30.81,18.89,34.76,33.4,30.17,25.9,20.05,15.79,14.63,17.39,20.39,25.07,28.8,31.95
YAMBA-PILOT-STATION,58012,-29.43,153.36,r1i1p1,rcp26,GFDL-ESM2M,2040-2059,24.65,27.8,25.06,21.15,24.6,26.8,22.51,28.18,28.18,26.74,25.38,23.05,21.27,20.33,21.85,23.47,25.08,25.26,27.02
ADELAIDE-KENT-TOWN,23090,-34.92,138.62,r1i1p1,rcp26,MIROC5,2040-2059,23.07,29.42,23.42,16.72,22.73,27.39,18.75,30.32,30.79,27.04,23.24,20.0,17.01,16.29,16.87,19.81,22.53,25.84,27.16
ALBANY-AIRPORT-COMPARISON,9741,-34.94,117.8,r1i1p1,rcp26,MIROC5,2040-2059,20.53,24.26,22.11,16.38,19.3,23.45,17.57,24.65,25.21,24.38,22.55,19.4,16.89,15.88,16.37,17.82,19.03,21.05,23.06
ALICE-SPRINGS-AIRPORT,15590,-23.8,133.89,r1i1p1,rcp26,MIROC5,2040-2059,30.1,36.82,29.15,22.03,32.39,34.87,25.32,37.84,36.58,34.19,29.09,24.17,21.39,21.43,23.25,29.42,32.25,35.49,36.03
AMBERLEY-AMO,40004,-27.63,152.71,r1i1p1,rcp26,MIROC5,2040-2059,28.41,32.42,28.18,23.54,29.5,31.25,25.56,32.91,31.74,30.64,28.52,25.38,23.32,23.11,24.18,27.77,29.59,31.15,32.56
BARCALDINE-POST-OFFICE,36007,-23.55,145.29,r1i1p1,rcp26,MIROC5,2040-2059,31.95,37.24,31.53,25.43,33.6,35.81,28.11,38.03,36.21,35.41,31.73,27.46,25.21,24.64,26.46,30.75,34.13,35.93,37.41
BATHURST-AGRICULTURAL-STATION,63005,-33.43,149.56,r1i1p1,rcp26,MIROC5,2040-2059,21.26,28.7,21.65,13.62,21.06,26.38,16.13,29.71,28.66,25.8,21.8,17.35,13.82,12.85,14.18,17.77,20.81,24.6,27.8
BIRDSVILLE-AIRPORT,38026,-25.9,139.35,r1i1p1,rcp26,MIROC5,2040-2059,32.01,39.42,31.48,23.5,33.67,37.24,26.79,40.46,39.54,36.68,31.42,26.34,23.26,22.78,24.45,30.51,33.39,37.1,38.25
BOULIA-AIRPORT,38003,-22.91,139.9,r1i1p1,rcp26,MIROC5,2040-2059,33.59,39.83,32.89,26.1,35.54,38.0,29.18,40.7,39.84,37.42,33.05,28.19,25.57,25.54,27.17,32.83,35.79,38.01,39.02
BOURKE-AIRPORT-AWS,48245,-30.04,145.95,r1i1p1,rcp26,MIROC5,2040-2059,28.83,36.7,28.52,20.26,29.86,34.36,23.32,37.53,36.75,33.59,28.57,23.39,20.31,19.21,21.26,26.19,29.55,33.84,35.82
BRIDGETOWN-COMPARISON,9510,-33.96,116.14,r1i1p1,rcp26,MIROC5,2040-2059,23.15,29.5,24.29,16.96,21.74,27.67,18.56,30.29,30.52,28.19,24.41,20.26,17.44,16.33,17.12,18.95,21.29,25.0,27.96
BRISBANE-AERO,40842,-27.39,153.12,r1i1p1,rcp26,MIROC5,2040-2059,26.48,30.05,26.75,22.4,26.72,29.01,23.94,30.41,29.87,28.73,26.99,24.52,22.53,22.03,22.65,25.22,26.71,28.22,29.85
BROOME-AIRPORT,3003,-17.95,122.23,r1i1p1,rcp26,MIROC5,2040-2059,33.09,33.83,34.18,30.97,33.35,34.23,31.93,34.09,33.09,34.8,35.09,32.64,31.08,30.56,31.27,32.44,33.61,34.01,34.39
BUNDABERG-AERO,39128,-24.91,152.32,r1i1p1,rcp26,MIROC5,2040-2059,27.99,31.45,28.3,24.07,28.15,30.45,25.52,31.82,31.32,30.28,28.56,26.06,24.21,23.53,24.47,26.66,28.19,29.61,31.22
BURKETOWN-AIRPORT,29077,-17.75,139.54,r1i1p1,rcp26,MIROC5,2040-2059,34.29,35.92,34.47,30.95,35.84,35.92,32.67,35.8,35.12,35.56,34.93,32.93,30.82,30.37,31.65,33.89,36.35,37.29,36.76
BUTLERS-GORGE,96003,-42.28,146.28,r1i1p1,rcp26,MIROC5,2040-2059,13.78,18.65,13.91,9.25,13.24,17.1,10.44,19.36,19.92,16.9,13.76,11.07,9.67,8.53,9.54,10.58,13.23,15.92,16.87
CABRAMURRA-SMHEA-AWS,72161,-35.94,148.38,r1i1p1,rcp26,MIROC5,2040-2059,12.72,20.13,13.71,5.02,11.96,17.87,7.54,20.87,21.35,17.94,13.51,9.68,5.85,4.3,4.91,8.63,11.88,15.39,18.31
CAIRNS-AERO,31011,-16.87,145.75,r1i1p1,rcp26,MIROC5,2040-2059,30.1,32.81,30.4,27.1,30.1,32.05,28.16,33.04,32.75,31.79,30.5,28.92,27.35,26.67,27.3,28.49,30.24,31.57,32.58
CAMOOWEAL-TOWNSHIP,37010,-19.92,138.12,r1i1p1,rcp26,MIROC5,2040-2059,34.85,39.2,34.49,28.84,37.41,38.25,31.69,39.79,38.69,37.5,35.03,30.93,28.36,28.26,29.91,34.95,38.12,39.38,39.08
CANBERRA-AIRPORT,70351,-35.31,149.2,r1i1p1,rcp26,MIROC5,2040-2059,21.44,28.76,21.84,13.88,21.26,26.5,16.37,29.94,29.16,25.19,22.89,17.44,14.04,13.47,14.12,18.05,21.1,24.62,27.29
CAPE-BORDA,22823,-35.75,136.6,r1i1p1,rcp26,MIROC5,2040-2059,19.13,23.54,19.64,15.09,18.22,22.12,16.11,24.23,24.56,22.19,19.43,17.29,15.6,14.89,14.78,16.19,17.94,20.53,21.91
CAPE-BRUNY-LIGHTHOUSE,94010,-43.49,147.15,r1i1p1,rcp26,MIROC5,2040-2059,15.77,18.77,16.27,12.75,15.24,17.82,13.71,19.24,19.78,18.08,16.35,14.39,12.69,12.52,13.04,14.4,15.2,16.12,17.39
CAPE-LEEUWIN,9518,-34.37,115.14,r1i1p1,rcp26,MIROC5,2040-2059,20.25,23.05,21.73,17.18,18.99,22.5,17.98,23.28,23.86,23.25,22.02,19.93,17.85,16.8,16.9,17.68,18.73,20.57,22.11
CAPE-MORETON-LIGHTHOUSE,40043,-27.03,153.47,r1i1p1,rcp26,MIROC5,2040-2059,25.04,28.63,25.51,21.21,25.0,27.57,22.57,28.88,28.65,27.46,25.76,23.45,21.42,20.91,21.29,23.43,24.95,26.63,28.33
CAPE-OTWAY-LIGHTHOUSE,90015,-38.86,143.51,r1i1p1,rcp26,MIROC5,2040-2059,17.21,20.5,17.75,13.82,16.77,19.47,14.93,20.97,21.69,19.63,17.87,15.93,14.0,13.5,13.97,15.38,16.81,18.06,18.91
CARNARVON-AIRPORT,6011,-24.89,113.67,r1i1p1,rcp26,MIROC5,2040-2059,28.33,31.9,30.42,23.83,27.19,31.38,25.28,32.06,33.61,33.09,30.75,27.41,24.28,23.29,23.91,25.44,27.38,28.74,30.03
CEDUNA-AMO,18012,-32.13,133.7,r1i1p1,rcp26,MIROC5,2040-2059,24.76,29.26,25.2,19.27,25.3,28.15,21.35,30.02,30.16,28.17,25.38,22.03,19.31,18.88,19.62,22.99,25.27,27.63,27.62
CHARLEVILLE-AERO,44021,-26.41,146.26,r1i1p1,rcp26,MIROC5,2040-2059,30.07,36.16,30.16,22.43,31.58,34.55,25.62,37.16,35.24,35.06,28.97,26.44,21.54,21.48,24.26,28.06,31.95,34.72,36.0
CHARTERS-TOWERS-AIRPORT,34084,-20.05,146.27,r1i1p1,rcp26,MIROC5,2040-2059,31.38,35.43,30.9,26.55,32.64,34.19,28.57,35.86,34.51,33.18,31.15,28.38,26.63,25.65,27.38,30.12,33.23,34.56,35.87
COBAR-MO,48027,-31.48,145.83,r1i1p1,rcp26,MIROC5,2040-2059,26.62,34.63,26.45,18.08,27.31,32.16,21.07,35.62,34.76,31.32,26.48,21.54,18.09,17.19,18.97,23.7,26.94,31.29,33.5
COFFS-HARBOUR-MO,59040,-30.31,153.12,r1i1p1,rcp26,MIROC5,2040-2059,24.69,28.03,24.85,20.78,25.08,27.04,22.33,28.36,28.03,26.77,25.15,22.64,20.92,20.27,21.13,23.69,25.3,26.25,27.72
CUNDERDIN-AIRFIELD,10286,-31.62,117.22,r1i1p1,rcp26,MIROC5,2040-2059,26.15,34.08,26.95,17.62,25.88,31.92,20.34,35.31,34.3,31.82,27.2,21.83,18.33,16.88,17.66,21.22,26.13,30.3,32.82
DALWALLINU-COMPARISON,8039,-30.28,116.66,r1i1p1,rcp26,MIROC5,2040-2059,27.04,34.99,27.92,18.44,26.74,32.85,21.19,36.37,35.45,33.07,28.23,22.46,18.82,17.7,18.79,22.34,27.02,30.87,33.34
DARWIN-AIRPORT,14015,-12.42,130.89,r1i1p1,rcp26,MIROC5,2040-2059,33.06,33.04,33.15,31.98,34.04,33.32,32.78,32.9,32.61,32.89,33.55,33.01,31.98,31.74,32.21,33.43,34.29,34.4,33.68
DENILIQUIN-AIRPORT-AWS,74258,-35.56,144.95,r1i1p1,rcp26,MIROC5,2040-2059,23.89,31.97,23.99,15.7,23.89,29.43,18.34,32.92,33.05,28.76,23.94,19.28,15.64,14.96,16.5,19.98,23.7,27.98,29.97
DUBBO-AIRPORT-AWS,65070,-32.22,148.58,r1i1p1,rcp26,MIROC5,2040-2059,25.31,33.09,25.5,17.1,25.55,30.73,19.88,33.87,33.13,30.0,25.63,20.89,17.37,16.27,17.66,21.7,25.42,29.53,32.25
EAST-SALE-AIRPORT,85072,-38.12,147.13,r1i1p1,rcp26,MIROC5,2040-2059,20.82,25.84,21.34,15.68,20.41,24.3,17.33,26.43,27.03,24.49,21.38,18.15,15.62,15.1,16.33,18.39,20.41,22.43,24.12
ESPERANCE,9789,-33.83,121.89,r1i1p1,rcp26,MIROC5,2040-2059,22.22,26.32,23.45,17.63,21.41,25.3,19.11,27.23,27.31,25.93,23.65,20.78,18.24,17.02,17.64,19.71,21.27,23.24,24.61
EUCLA,11003,-31.68,128.88,r1i1p1,rcp26,MIROC5,2040-2059,23.63,26.76,24.11,19.32,24.38,26.03,21.26,27.59,27.27,26.12,24.37,21.87,19.45,18.78,19.73,22.83,24.89,25.44,25.35
FORREST,11052,-30.85,128.11,r1i1p1,rcp26,MIROC5,2040-2059,26.48,32.7,26.32,19.55,27.34,30.68,22.28,34.36,33.14,29.7,26.47,22.81,19.36,18.98,20.3,24.86,27.36,29.8,30.63
GABO-ISLAND-LIGHTHOUSE,84016,-37.57,149.92,r1i1p1,rcp26,MIROC5,2040-2059,19.56,22.48,20.57,16.34,18.85,21.72,17.39,22.88,23.44,22.3,20.76,18.64,16.72,15.95,16.33,17.79,18.92,19.84,21.18
GAYNDAH-AIRPORT,39066,-25.62,151.62,r1i1p1,rcp26,MIROC5,2040-2059,29.91,34.48,29.72,24.49,30.97,33.12,26.7,35.05,33.75,32.57,29.95,26.64,24.36,23.81,25.31,28.78,31.31,32.81,34.6
GEORGETOWN-AIRPORT,30124,-18.3,143.53,r1i1p1,rcp26,MIROC5,2040-2059,34.1,36.07,33.63,30.37,36.36,35.89,32.33,36.01,34.77,34.92,34.2,31.78,30.08,29.84,31.19,34.08,36.98,38.03,37.35
GERALDTON-AIRPORT-COMPARISON,8051,-28.8,114.7,r1i1p1,rcp26,MIROC5,2040-2059,26.72,31.8,28.76,20.66,25.59,30.85,22.54,32.26,33.49,32.2,29.21,24.86,21.49,20.0,20.47,22.77,25.64,28.35,29.86
GILES-METEOROLOGICAL-OFFICE,13017,-25.03,128.3,r1i1p1,rcp26,MIROC5,2040-2059,30.45,37.13,29.79,22.13,32.77,35.26,25.65,38.0,36.94,34.53,29.97,24.86,21.5,21.37,23.51,29.27,33.42,35.64,36.44
GROVE-RESEARCH-STATION,94220,-42.99,147.07,r1i1p1,rcp26,MIROC5,2040-2059,18.12,22.54,18.4,13.75,17.74,21.1,15.13,23.19,23.7,21.25,18.33,15.6,13.46,13.34,14.46,16.13,17.77,19.33,20.9
GUNNEDAH-RESOURCE-CENTRE,55024,-31.03,150.27,r1i1p1,rcp26,MIROC5,2040-2059,25.97,32.79,26.19,18.41,26.5,30.79,21.14,33.56,32.64,30.37,26.35,21.84,18.48,17.6,19.16,23.17,26.59,29.73,32.13
HALLS-CREEK-AIRPORT,2012,-18.23,127.66,r1i1p1,rcp26,MIROC5,2040-2059,34.87,37.91,34.13,29.69,37.72,37.46,32.29,38.04,36.66,36.91,34.58,30.9,29.23,28.94,30.9,35.47,38.26,39.43,39.11
HOBART-ELLERSLIE-ROAD,94029,-42.89,147.33,r1i1p1,rcp26,MIROC5,2040-2059,18.43,22.51,18.79,14.12,18.25,21.22,15.63,23.03,23.51,21.27,18.9,16.21,13.74,13.69,14.95,16.82,18.38,19.56,21.13
HORN-ISLAND,27058,-10.58,142.29,r1i1p1,rcp26,MIROC5,2040-2059,31.25,32.33,31.32,29.63,31.76,32.21,30.32,32.2,31.86,31.68,31.49,30.8,30.02,29.4,29.48,30.5,31.75,33.02,32.96
INVERELL-RAGLAN-ST,56242,-29.78,151.11,r1i1p1,rcp26,MIROC5,2040-2059,25.01,30.93,25.43,18.34,25.36,29.26,20.77,31.72,30.66,29.11,25.56,21.61,18.44,17.66,18.93,22.59,25.4,28.09,30.38
JERVIS-BAY-POINT-PERPENDICULAR-AWS,68151,-35.09,150.8,r1i1p1,rcp26,MIROC5,2040-2059,21.58,25.12,22.25,17.59,21.46,24.13,19.05,25.43,25.43,24.32,22.48,19.94,17.87,17.0,17.9,19.97,21.6,22.81,24.46
KALGOORLIE-BOULDER-AIRPORT,12038,-30.78,121.45,r1i1p1,rcp26,MIROC5,2040-2059,26.15,33.37,26.01,18.25,26.93,31.05,21.23,34.83,32.96,30.38,26.16,21.47,18.25,17.51,18.98,23.82,27.32,29.66,32.39
KALUMBURU,1019,-14.3,126.65,r1i1p1,rcp26,MIROC5,2040-2059,35.16,35.22,34.86,33.35,37.11,35.61,34.7,35.4,33.94,35.06,35.26,34.27,33.13,33.01,33.93,36.21,37.46,37.66,36.37
KATANNING-COMPARISON,10579,-33.69,117.56,r1i1p1,rcp26,MIROC5,2040-2059,23.05,30.1,24.02,15.9,22.13,28.11,17.96,31.01,30.54,28.19,24.2,19.67,16.47,15.2,16.04,18.43,21.93,26.02,28.96
KERANG,80023,-35.72,143.92,r1i1p1,rcp26,MIROC5,2040-2059,23.74,31.53,23.75,15.94,23.72,29.01,18.45,32.46,32.7,28.34,23.7,19.19,15.78,15.21,16.83,20.1,23.6,27.46,29.45
KYANCUTTA,18044,-33.13,135.56,r1i1p1,rcp26,MIROC5,2040-2059,26.1,32.95,26.4,18.8,26.27,30.9,21.3,34.0,34.01,30.63,26.3,22.26,18.95,18.39,19.08,22.88,26.23,29.68,30.84
LARAPUNA-EDDYSTONE-POINT,92045,-40.99,148.35,r1i1p1,rcp26,MIROC5,2040-2059,18.53,21.85,19.46,15.11,17.77,20.92,16.13,22.18,22.79,21.59,19.27,17.3,15.27,14.8,15.25,16.51,17.74,19.07,20.67
LAUNCESTON-AIRPORT,91311,-41.55,147.21,r1i1p1,rcp26,MIROC5,2040-2059,18.64,24.08,19.1,13.18,18.15,22.45,14.81,24.65,25.4,22.97,18.87,15.47,13.08,12.68,13.78,15.75,18.09,20.59,22.39
LAVERTON-RAAF,87031,-37.86,144.76,r1i1p1,rcp26,MIROC5,2040-2059,20.71,25.86,21.02,15.54,20.39,24.23,17.2,26.47,27.24,24.12,21.07,17.88,15.48,15.11,16.04,18.19,20.47,22.52,23.93
LEARMONTH-AIRPORT,5007,-22.24,114.1,r1i1p1,rcp26,MIROC5,2040-2059,32.53,37.94,33.57,25.7,32.87,36.7,28.34,38.97,37.65,37.36,34.13,29.22,25.39,24.89,26.82,30.03,33.7,34.87,37.34
LONGREACH-AERO,36031,-23.44,144.28,r1i1p1,rcp26,MIROC5,2040-2059,33.36,38.93,33.13,26.21,35.19,37.35,29.39,39.72,38.37,37.39,32.57,29.42,24.89,26.0,27.74,31.77,36.5,37.31,38.61
LOW-HEAD,91293,-41.06,146.79,r1i1p1,rcp26,MIROC5,2040-2059,17.2,20.59,18.16,13.77,16.24,19.64,14.73,20.93,22.0,20.27,18.2,16.02,14.18,13.38,13.75,14.84,16.24,17.63,18.95
MACKAY-M.O,33119,-21.12,149.22,r1i1p1,rcp26,MIROC5,2040-2059,27.66,31.59,27.61,23.15,28.31,30.4,24.92,31.78,31.32,29.64,27.81,25.38,23.52,22.42,23.51,26.18,28.52,30.23,31.65
MARBLE-BAR,4106,-21.18,119.75,r1i1p1,rcp26,MIROC5,2040-2059,36.07,40.61,35.64,29.09,38.97,39.75,32.33,41.23,38.65,38.98,36.31,31.63,28.49,28.33,30.44,35.41,39.91,41.33,42.1
MARREE,17031,-29.65,138.06,r1i1p1,rcp26,MIROC5,2040-2059,29.93,37.79,29.75,21.19,31.01,35.52,24.34,38.8,38.55,35.01,29.86,24.36,20.98,20.45,22.13,27.56,30.55,34.93,35.96
MEEKATHARRA-AIRPORT,7045,-26.61,118.54,r1i1p1,rcp26,MIROC5,2040-2059,29.99,37.95,30.22,20.77,30.95,35.57,24.39,38.76,38.02,35.17,30.04,25.44,20.02,19.9,22.38,26.83,31.74,34.28,37.23
MELBOURNE-REGIONAL-OFFICE,86071,-37.81,144.97,r1i1p1,rcp26,MIROC5,2040-2059,21.27,26.66,21.55,15.82,21.02,24.94,17.59,27.2,28.13,24.86,21.55,18.26,15.66,15.32,16.48,18.71,21.11,23.23,24.71
MERREDIN,10092,-31.48,118.28,r1i1p1,rcp26,MIROC5,2040-2059,26.19,34.14,26.87,17.63,26.06,31.87,20.47,35.41,34.24,31.84,26.94,21.83,18.16,16.86,17.86,21.71,26.38,30.08,32.95
MILDURA-AIRPORT,76031,-34.24,142.09,r1i1p1,rcp26,MIROC5,2040-2059,24.72,32.36,24.4,16.99,25.14,29.85,19.6,33.26,33.39,28.88,24.35,19.98,16.95,16.22,17.81,21.58,25.05,28.77,30.42
MILES-CONSTANCE-STREET,42112,-26.66,150.18,r1i1p1,rcp26,MIROC5,2040-2059,28.72,34.31,28.62,21.98,29.99,32.77,24.66,35.1,33.36,32.39,28.9,24.56,21.74,21.15,23.05,27.16,30.32,32.49,34.44
MORAWA-AIRPORT,8296,-29.2,116.02,r1i1p1,rcp26,MIROC5,2040-2059,28.32,36.3,29.02,19.83,28.34,34.17,22.7,37.66,36.89,34.35,29.83,23.88,20.12,19.15,20.22,24.04,28.77,32.21,34.8
MOREE-AERO,53115,-29.49,149.85,r1i1p1,rcp26,MIROC5,2040-2059,27.54,34.15,27.67,19.93,28.44,32.3,22.8,34.83,33.82,31.8,27.78,23.43,20.07,19.13,20.59,25.0,28.54,31.77,33.67
MORUYA-HEADS-PILOT-STATION,69018,-35.91,150.15,r1i1p1,rcp26,MIROC5,2040-2059,21.71,24.59,22.43,18.26,21.55,23.84,19.56,24.95,25.14,24.33,22.56,20.41,18.53,17.72,18.54,20.4,21.78,22.48,23.69
MOUNT-GAMBIER-AERO,26021,-37.75,140.77,r1i1p1,rcp26,MIROC5,2040-2059,19.75,25.13,20.35,14.62,18.86,23.43,16.05,25.57,26.68,23.69,20.24,17.12,14.74,14.25,14.87,16.73,18.61,21.24,23.27
NHILL-AERODROME,78015,-36.31,141.65,r1i1p1,rcp26,MIROC5,2040-2059,23.0,30.61,23.18,15.67,22.53,28.14,17.87,31.25,32.07,27.58,23.03,18.92,15.62,15.15,16.25,18.93,22.34,26.32,28.57
NORMANTON-AIRPORT,29063,-17.69,141.07,r1i1p1,rcp26,MIROC5,2040-2059,34.8,36.15,34.92,31.61,36.52,36.25,33.35,36.13,35.36,35.8,35.59,33.36,31.31,31.1,32.42,35.06,36.84,37.67,36.89
NORTH-SHIELDS-PORT-LINCOLN-AWS,18192,-34.6,135.88,r1i1p1,rcp26,MIROC5,2040-2059,21.58,25.7,22.23,17.1,21.27,24.53,18.61,26.36,26.6,24.31,22.26,20.12,17.56,16.83,16.91,19.01,21.25,23.55,24.17
NOWRA-RAN-AIR-STATION-AWS,68072,-34.95,150.54,r1i1p1,rcp26,MIROC5,2040-2059,23.28,27.39,23.72,18.57,23.44,26.2,20.35,27.87,27.5,26.19,24.01,20.97,18.66,17.92,19.12,21.79,23.61,24.93,26.79
NURIOOTPA-VITICULTURAL,23373,-34.48,139.01,r1i1p1,rcp26,MIROC5,2040-2059,21.87,28.94,22.2,14.74,21.58,26.71,17.02,29.92,30.21,26.25,22.07,18.28,14.96,14.36,14.91,18.19,21.42,25.13,26.68
OODNADATTA-AIRPORT,17043,-27.56,135.45,r1i1p1,rcp26,MIROC5,2040-2059,31.04,37.69,29.7,21.54,31.78,35.48,24.87,38.94,38.03,34.92,29.49,24.69,21.16,20.7,22.75,28.53,31.27,35.54,36.47
ORBOST,84145,-37.69,148.47,r1i1p1,rcp26,MIROC5,2040-2059,20.94,25.55,21.45,16.23,20.57,24.19,17.71,26.3,26.76,24.36,21.41,18.56,16.18,15.69,16.82,18.65,20.37,22.7,23.84
PALMERVILLE,28004,-16.0,144.08,r1i1p1,rcp26,MIROC5,2040-2059,33.81,35.21,32.89,31.15,35.89,34.89,32.72,34.81,34.1,33.22,33.28,32.17,31.1,30.46,31.75,34.04,36.44,37.47,36.73
PERTH-AIRPORT,9021,-31.93,115.98,r1i1p1,rcp26,MIROC5,2040-2059,25.6,31.68,26.86,19.27,24.51,30.16,21.0,33.09,32.66,31.27,26.73,22.57,19.45,18.73,19.63,21.4,24.22,27.9,29.57
PORT-HEDLAND-AIRPORT,4032,-20.37,118.63,r1i1p1,rcp26,MIROC5,2040-2059,34.16,36.65,35.43,29.01,35.46,36.84,31.43,36.97,36.39,37.76,36.33,32.19,28.53,28.62,29.88,32.64,36.72,37.03,36.84
PORT-MACQUARIE-AIRPORT-AWS,60139,-31.43,152.87,r1i1p1,rcp26,MIROC5,2040-2059,24.69,28.32,24.91,20.6,24.97,27.19,22.21,28.74,28.54,27.03,25.05,22.65,20.78,19.92,21.1,23.79,25.02,26.11,27.76
RABBIT-FLAT,15666,-20.18,130.01,r1i1p1,rcp26,MIROC5,2040-2059,34.76,39.32,33.73,28.22,37.74,38.3,31.22,39.72,38.17,37.24,34.28,29.66,27.99,27.37,29.3,34.99,37.98,40.26,40.17
RICHMOND-POST-OFFICE,30045,-20.73,143.14,r1i1p1,rcp26,MIROC5,2040-2059,34.08,38.14,33.57,28.41,36.24,37.19,30.99,38.5,37.23,36.25,34.19,30.26,28.12,27.65,29.46,33.51,36.93,38.28,38.64
RICHMOND-RAAF,67105,-33.6,150.78,r1i1p1,rcp26,MIROC5,2040-2059,24.92,29.9,24.67,19.49,25.62,28.27,21.57,30.65,29.64,27.6,24.88,21.53,19.35,18.76,20.35,23.55,25.86,27.45,29.35
ROBE-COMPARISON,26026,-37.16,139.76,r1i1p1,rcp26,MIROC5,2040-2059,18.96,22.58,19.5,15.15,18.59,21.52,16.39,22.95,23.53,21.57,19.47,17.46,15.4,14.79,15.25,16.91,18.54,20.32,21.32
ROCKHAMPTON-AERO,39083,-23.38,150.48,r1i1p1,rcp26,MIROC5,2040-2059,29.78,33.48,29.82,25.23,30.6,32.43,27.13,33.84,33.12,32.08,30.01,27.36,25.32,24.55,25.82,28.75,30.94,32.12,33.5
RUTHERGLEN-RESEARCH,82039,-36.1,146.51,r1i1p1,rcp26,MIROC5,2040-2059,22.74,31.36,23.29,14.29,21.99,28.66,16.81,32.37,32.36,28.25,23.33,18.28,14.44,13.46,14.98,18.16,21.53,26.29,29.4
SCONE-AIRPORT-AWS,61363,-32.03,150.83,r1i1p1,rcp26,MIROC5,2040-2059,25.22,31.48,25.19,18.28,25.92,29.59,20.83,32.16,31.17,28.77,25.53,21.26,18.3,17.48,19.07,22.86,26.0,28.89,31.14
SNOWTOWN-RAYVILLE-PARK,21133,-33.77,138.22,r1i1p1,rcp26,MIROC5,2040-2059,24.33,31.97,24.59,16.51,24.22,29.53,19.11,33.11,33.14,28.68,24.53,20.58,16.85,16.11,16.57,20.19,24.34,28.14,29.67
ST-GEORGE-AIRPORT,43109,-28.05,148.59,r1i1p1,rcp26,MIROC5,2040-2059,28.89,35.4,28.71,21.32,30.16,33.53,24.27,36.16,34.74,32.91,28.9,24.31,21.21,20.5,22.25,27.04,30.29,33.15,35.21
SYDNEY-OBSERVATORY-HILL,66062,-33.86,151.21,r1i1p1,rcp26,MIROC5,2040-2059,23.75,27.4,24.22,19.39,23.99,26.39,21.1,27.72,27.58,26.47,24.48,21.71,19.5,18.73,19.96,22.55,24.19,25.24,26.92
TARCOOLA-AERO,16098,-30.71,134.58,r1i1p1,rcp26,MIROC5,2040-2059,27.9,35.28,27.69,19.93,28.75,32.99,22.83,36.8,36.48,32.28,27.59,23.19,19.67,19.63,20.48,25.41,28.58,32.25,32.88
TENNANT-CREEK-AIRPORT,15135,-19.64,134.18,r1i1p1,rcp26,MIROC5,2040-2059,33.07,37.56,32.23,26.79,35.71,36.53,29.62,38.12,36.91,35.79,32.56,28.36,26.49,26.13,27.75,33.08,35.94,38.11,37.64
THARGOMINDAH-AIRPORT,45025,-27.99,143.81,r1i1p1,rcp26,MIROC5,2040-2059,30.22,37.88,29.79,21.72,31.48,35.55,24.9,38.94,37.54,34.84,29.75,24.78,21.47,20.94,22.76,28.03,31.44,34.99,37.17
TIBOOBURRA-POST-OFFICE,46037,-29.43,142.01,r1i1p1,rcp26,MIROC5,2040-2059,28.71,36.65,28.17,20.16,29.83,34.18,23.23,37.94,36.9,33.3,28.17,23.05,20.0,19.33,21.16,26.4,29.46,33.64,35.13
TOWNSVILLE-AERO,32040,-19.25,146.77,r1i1p1,rcp26,MIROC5,2040-2059,30.43,33.23,31.02,27.13,30.35,32.55,28.31,33.46,33.09,32.58,31.27,29.21,27.56,26.48,27.35,28.7,30.57,31.78,33.05
